{"cities":[{"id":"positano","label":"Positano, Italy","countryCode":"IT","lat":40.628,"lng":14.485,"zoom":13,"boundsPad":0.045,"transit":[{"id":"positano-t1","name":"Transit / station area (refine in data)","mode":"rail","lat":40.636,"lng":14.479},{"id":"positano-t2","name":"City center link (refine in data)","mode":"rail","lat":40.622,"lng":14.492999999999999}],"touristAnchors":[{"id":"positano-core","label":"Positano center","lat":40.628,"lng":14.485}]},{"id":"amalfi","label":"Amalfi, Italy","countryCode":"IT","lat":40.6333,"lng":14.6029,"zoom":13,"boundsPad":0.045,"transit":[{"id":"amalfi-t1","name":"Transit / station area (refine in data)","mode":"rail","lat":40.6413,"lng":14.5969},{"id":"amalfi-t2","name":"City center link (refine in data)","mode":"rail","lat":40.6273,"lng":14.610899999999999}],"touristAnchors":[{"id":"amalfi-core","label":"Amalfi center","lat":40.6333,"lng":14.6029}]},{"id":"ravello","label":"Ravello, Italy","countryCode":"IT","lat":40.6493,"lng":14.6113,"zoom":13,"boundsPad":0.045,"transit":[{"id":"ravello-t1","name":"Transit / station area (refine in data)","mode":"rail","lat":40.6573,"lng":14.6053},{"id":"ravello-t2","name":"City center link (refine in data)","mode":"rail","lat":40.643299999999996,"lng":14.619299999999999}],"touristAnchors":[{"id":"ravello-core","label":"Ravello center","lat":40.6493,"lng":14.6113}]},{"id":"sorrento","label":"Sorrento, Italy","countryCode":"IT","lat":40.6263,"lng":14.3758,"zoom":12,"boundsPad":0.085,"transit":[{"id":"sorrento-t1","name":"Transit / station area (refine in data)","mode":"rail","lat":40.6343,"lng":14.3698},{"id":"sorrento-t2","name":"City center link (refine in data)","mode":"rail","lat":40.6203,"lng":14.383799999999999}],"touristAnchors":[{"id":"sorrento-core","label":"Sorrento center","lat":40.6263,"lng":14.3758}]},{"id":"capri","label":"Capri, Italy","countryCode":"IT","lat":40.5532,"lng":14.2422,"zoom":13,"boundsPad":0.045,"transit":[{"id":"capri-t1","name":"Transit / station area (refine in data)","mode":"rail","lat":40.5612,"lng":14.2362},{"id":"capri-t2","name":"City center link (refine in data)","mode":"rail","lat":40.5472,"lng":14.2502}],"touristAnchors":[{"id":"capri-core","label":"Capri center","lat":40.5532,"lng":14.2422}]},{"id":"ischia","label":"Ischia, Italy","countryCode":"IT","lat":40.737,"lng":13.9489,"zoom":12,"boundsPad":0.085,"transit":[{"id":"ischia-t1","name":"Transit / station area (refine in data)","mode":"rail","lat":40.745000000000005,"lng":13.9429},{"id":"ischia-t2","name":"City center link (refine in data)","mode":"rail","lat":40.731,"lng":13.9569}],"touristAnchors":[{"id":"ischia-core","label":"Ischia center","lat":40.737,"lng":13.9489}]},{"id":"matera","label":"Matera, Italy","countryCode":"IT","lat":40.6664,"lng":16.6043,"zoom":12,"boundsPad":0.085,"transit":[{"id":"matera-t1","name":"Transit / station area (refine in data)","mode":"rail","lat":40.674400000000006,"lng":16.5983},{"id":"matera-t2","name":"City center link (refine in data)","mode":"rail","lat":40.6604,"lng":16.612299999999998}],"touristAnchors":[{"id":"matera-core","label":"Matera center","lat":40.6664,"lng":16.6043}]},{"id":"bari","label":"Bari, Italy","countryCode":"IT","lat":41.1171,"lng":16.8719,"zoom":11,"boundsPad":0.085,"transit":[{"id":"bari-t1","name":"Transit / station area (refine in data)","mode":"rail","lat":41.1251,"lng":16.8659},{"id":"bari-t2","name":"City center link (refine in data)","mode":"rail","lat":41.1111,"lng":16.8799}],"touristAnchors":[{"id":"bari-core","label":"Bari center","lat":41.1171,"lng":16.8719}]},{"id":"lecce","label":"Lecce, Italy","countryCode":"IT","lat":40.3515,"lng":18.175,"zoom":12,"boundsPad":0.085,"transit":[{"id":"lecce-t1","name":"Transit / station area (refine in data)","mode":"rail","lat":40.359500000000004,"lng":18.169},{"id":"lecce-t2","name":"City center link (refine in data)","mode":"rail","lat":40.3455,"lng":18.183}],"touristAnchors":[{"id":"lecce-core","label":"Lecce center","lat":40.3515,"lng":18.175}]},{"id":"brindisi","label":"Brindisi, Italy","countryCode":"IT","lat":40.6322,"lng":17.9361,"zoom":12,"boundsPad":0.085,"transit":[{"id":"brindisi-t1","name":"Transit / station area (refine in data)","mode":"rail","lat":40.6402,"lng":17.9301},{"id":"brindisi-t2","name":"City center link (refine in data)","mode":"rail","lat":40.6262,"lng":17.9441}],"touristAnchors":[{"id":"brindisi-core","label":"Brindisi center","lat":40.6322,"lng":17.9361}]},{"id":"ostuni","label":"Ostuni, Italy","countryCode":"IT","lat":40.7296,"lng":17.575,"zoom":12,"boundsPad":0.085,"transit":[{"id":"ostuni-t1","name":"Transit / station area (refine in data)","mode":"rail","lat":40.7376,"lng":17.569},{"id":"ostuni-t2","name":"City center link (refine in data)","mode":"rail","lat":40.7236,"lng":17.583}],"touristAnchors":[{"id":"ostuni-core","label":"Ostuni center","lat":40.7296,"lng":17.575}]},{"id":"alberobello","label":"Alberobello, Italy","countryCode":"IT","lat":40.7844,"lng":17.2372,"zoom":13,"boundsPad":0.045,"transit":[{"id":"alberobello-t1","name":"Transit / station area (refine in data)","mode":"rail","lat":40.7924,"lng":17.2312},{"id":"alberobello-t2","name":"City center link (refine in data)","mode":"rail","lat":40.7784,"lng":17.2452}],"touristAnchors":[{"id":"alberobello-core","label":"Alberobello center","lat":40.7844,"lng":17.2372}]},{"id":"polignano","label":"Polignano a Mare, Italy","countryCode":"IT","lat":40.9961,"lng":17.2196,"zoom":13,"boundsPad":0.045,"transit":[{"id":"polignano-t1","name":"Transit / station area (refine in data)","mode":"rail","lat":41.0041,"lng":17.2136},{"id":"polignano-t2","name":"City center link (refine in data)","mode":"rail","lat":40.9901,"lng":17.2276}],"touristAnchors":[{"id":"polignano-core","label":"Polignano a Mare center","lat":40.9961,"lng":17.2196}]},{"id":"gallipoli","label":"Gallipoli, Italy","countryCode":"IT","lat":40.0559,"lng":17.99,"zoom":12,"boundsPad":0.085,"transit":[{"id":"gallipoli-t1","name":"Transit / station area (refine in data)","mode":"rail","lat":40.063900000000004,"lng":17.983999999999998},{"id":"gallipoli-t2","name":"City center link (refine in data)","mode":"rail","lat":40.0499,"lng":17.997999999999998}],"touristAnchors":[{"id":"gallipoli-core","label":"Gallipoli center","lat":40.0559,"lng":17.99}]},{"id":"otranto","label":"Otranto, Italy","countryCode":"IT","lat":40.1481,"lng":18.4941,"zoom":12,"boundsPad":0.085,"transit":[{"id":"otranto-t1","name":"Transit / station area (refine in data)","mode":"rail","lat":40.1561,"lng":18.4881},{"id":"otranto-t2","name":"City center link (refine in data)","mode":"rail","lat":40.1421,"lng":18.5021}],"touristAnchors":[{"id":"otranto-core","label":"Otranto center","lat":40.1481,"lng":18.4941}]},{"id":"trieste","label":"Trieste, Italy","countryCode":"IT","lat":45.6495,"lng":13.7768,"zoom":12,"boundsPad":0.085,"transit":[{"id":"trieste-t1","name":"Transit / station area (refine in data)","mode":"rail","lat":45.657500000000006,"lng":13.7708},{"id":"trieste-t2","name":"City center link (refine in data)","mode":"rail","lat":45.6435,"lng":13.784799999999999}],"touristAnchors":[{"id":"trieste-core","label":"Trieste center","lat":45.6495,"lng":13.7768}]},{"id":"genoa","label":"Genoa, Italy","countryCode":"IT","lat":44.4056,"lng":8.9463,"zoom":11,"boundsPad":0.085,"transit":[{"id":"genoa-t1","name":"Transit / station area (refine in data)","mode":"rail","lat":44.4136,"lng":8.9403},{"id":"genoa-t2","name":"City center link (refine in data)","mode":"rail","lat":44.3996,"lng":8.9543}],"touristAnchors":[{"id":"genoa-core","label":"Genoa center","lat":44.4056,"lng":8.9463}]},{"id":"savona","label":"Savona, Italy","countryCode":"IT","lat":44.309,"lng":8.4811,"zoom":12,"boundsPad":0.085,"transit":[{"id":"savona-t1","name":"Transit / station area (refine in data)","mode":"rail","lat":44.317,"lng":8.4751},{"id":"savona-t2","name":"City center link (refine in data)","mode":"rail","lat":44.303,"lng":8.489099999999999}],"touristAnchors":[{"id":"savona-core","label":"Savona center","lat":44.309,"lng":8.4811}]},{"id":"verona","label":"Verona, Italy","countryCode":"IT","lat":45.4384,"lng":10.9916,"zoom":12,"boundsPad":0.085,"transit":[{"id":"verona-t1","name":"Transit / station area (refine in data)","mode":"rail","lat":45.446400000000004,"lng":10.9856},{"id":"verona-t2","name":"City center link (refine in data)","mode":"rail","lat":45.4324,"lng":10.9996}],"touristAnchors":[{"id":"verona-core","label":"Verona center","lat":45.4384,"lng":10.9916}]},{"id":"vicenza","label":"Vicenza, Italy","countryCode":"IT","lat":45.5455,"lng":11.5354,"zoom":12,"boundsPad":0.085,"transit":[{"id":"vicenza-t1","name":"Transit / station area (refine in data)","mode":"rail","lat":45.5535,"lng":11.529399999999999},{"id":"vicenza-t2","name":"City center link (refine in data)","mode":"rail","lat":45.5395,"lng":11.543399999999998}],"touristAnchors":[{"id":"vicenza-core","label":"Vicenza center","lat":45.5455,"lng":11.5354}]},{"id":"padua","label":"Padua, Italy","countryCode":"IT","lat":45.4064,"lng":11.8768,"zoom":12,"boundsPad":0.085,"transit":[{"id":"padua-t1","name":"Transit / station area (refine in data)","mode":"rail","lat":45.4144,"lng":11.8708},{"id":"padua-t2","name":"City center link (refine in data)","mode":"rail","lat":45.4004,"lng":11.884799999999998}],"touristAnchors":[{"id":"padua-core","label":"Padua center","lat":45.4064,"lng":11.8768}]},{"id":"treviso","label":"Treviso, Italy","countryCode":"IT","lat":45.6669,"lng":12.243,"zoom":12,"boundsPad":0.085,"transit":[{"id":"treviso-t1","name":"Transit / station area (refine in data)","mode":"rail","lat":45.6749,"lng":12.237},{"id":"treviso-t2","name":"City center link (refine in data)","mode":"rail","lat":45.6609,"lng":12.251}],"touristAnchors":[{"id":"treviso-core","label":"Treviso center","lat":45.6669,"lng":12.243}]},{"id":"udine","label":"Udine, Italy","countryCode":"IT","lat":46.062,"lng":13.2349,"zoom":12,"boundsPad":0.085,"transit":[{"id":"udine-t1","name":"Transit / station area (refine in data)","mode":"rail","lat":46.07,"lng":13.2289},{"id":"udine-t2","name":"City center link (refine in data)","mode":"rail","lat":46.056,"lng":13.242899999999999}],"touristAnchors":[{"id":"udine-core","label":"Udine center","lat":46.062,"lng":13.2349}]},{"id":"perugia","label":"Perugia, Italy","countryCode":"IT","lat":43.1107,"lng":12.3908,"zoom":12,"boundsPad":0.085,"transit":[{"id":"perugia-t1","name":"Transit / station area (refine in data)","mode":"rail","lat":43.118700000000004,"lng":12.3848},{"id":"perugia-t2","name":"City center link (refine in data)","mode":"rail","lat":43.1047,"lng":12.3988}],"touristAnchors":[{"id":"perugia-core","label":"Perugia center","lat":43.1107,"lng":12.3908}]},{"id":"assisi","label":"Assisi, Italy","countryCode":"IT","lat":43.0708,"lng":12.6165,"zoom":13,"boundsPad":0.045,"transit":[{"id":"assisi-t1","name":"Transit / station area (refine in data)","mode":"rail","lat":43.0788,"lng":12.6105},{"id":"assisi-t2","name":"City center link (refine in data)","mode":"rail","lat":43.0648,"lng":12.6245}],"touristAnchors":[{"id":"assisi-core","label":"Assisi center","lat":43.0708,"lng":12.6165}]},{"id":"siena","label":"Siena, Italy","countryCode":"IT","lat":43.3188,"lng":11.3317,"zoom":12,"boundsPad":0.085,"transit":[{"id":"siena-t1","name":"Transit / station area (refine in data)","mode":"rail","lat":43.326800000000006,"lng":11.3257},{"id":"siena-t2","name":"City center link (refine in data)","mode":"rail","lat":43.3128,"lng":11.339699999999999}],"touristAnchors":[{"id":"siena-core","label":"Siena center","lat":43.3188,"lng":11.3317}]},{"id":"san-gimignano","label":"San Gimignano, Italy","countryCode":"IT","lat":43.4678,"lng":11.0421,"zoom":13,"boundsPad":0.045,"transit":[{"id":"san-gimignano-t1","name":"Transit / station area (refine in data)","mode":"rail","lat":43.4758,"lng":11.0361},{"id":"san-gimignano-t2","name":"City center link (refine in data)","mode":"rail","lat":43.4618,"lng":11.050099999999999}],"touristAnchors":[{"id":"san-gimignano-core","label":"San Gimignano center","lat":43.4678,"lng":11.0421}]},{"id":"lucca","label":"Lucca, Italy","countryCode":"IT","lat":43.8428,"lng":10.5027,"zoom":12,"boundsPad":0.085,"transit":[{"id":"lucca-t1","name":"Transit / station area (refine in data)","mode":"rail","lat":43.8508,"lng":10.4967},{"id":"lucca-t2","name":"City center link (refine in data)","mode":"rail","lat":43.8368,"lng":10.5107}],"touristAnchors":[{"id":"lucca-core","label":"Lucca center","lat":43.8428,"lng":10.5027}]},{"id":"pisa","label":"Pisa, Italy","countryCode":"IT","lat":43.7228,"lng":10.4017,"zoom":12,"boundsPad":0.085,"transit":[{"id":"pisa-t1","name":"Transit / station area (refine in data)","mode":"rail","lat":43.7308,"lng":10.3957},{"id":"pisa-t2","name":"City center link (refine in data)","mode":"rail","lat":43.7168,"lng":10.409699999999999}],"touristAnchors":[{"id":"pisa-core","label":"Pisa center","lat":43.7228,"lng":10.4017}]},{"id":"livorno","label":"Livorno, Italy","countryCode":"IT","lat":43.5485,"lng":10.3106,"zoom":12,"boundsPad":0.085,"transit":[{"id":"livorno-t1","name":"Transit / station area (refine in data)","mode":"rail","lat":43.5565,"lng":10.3046},{"id":"livorno-t2","name":"City center link (refine in data)","mode":"rail","lat":43.5425,"lng":10.3186}],"touristAnchors":[{"id":"livorno-core","label":"Livorno center","lat":43.5485,"lng":10.3106}]},{"id":"como","label":"Como, Italy","countryCode":"IT","lat":45.8081,"lng":9.0852,"zoom":12,"boundsPad":0.085,"transit":[{"id":"como-t1","name":"Transit / station area (refine in data)","mode":"rail","lat":45.816100000000006,"lng":9.0792},{"id":"como-t2","name":"City center link (refine in data)","mode":"rail","lat":45.8021,"lng":9.0932}],"touristAnchors":[{"id":"como-core","label":"Como center","lat":45.8081,"lng":9.0852}]},{"id":"bellagio","label":"Bellagio, Italy","countryCode":"IT","lat":45.9877,"lng":9.2615,"zoom":13,"boundsPad":0.045,"transit":[{"id":"bellagio-t1","name":"Transit / station area (refine in data)","mode":"rail","lat":45.9957,"lng":9.2555},{"id":"bellagio-t2","name":"City center link (refine in data)","mode":"rail","lat":45.9817,"lng":9.269499999999999}],"touristAnchors":[{"id":"bellagio-core","label":"Bellagio center","lat":45.9877,"lng":9.2615}]},{"id":"stresa","label":"Stresa, Italy","countryCode":"IT","lat":45.7626,"lng":8.538,"zoom":12,"boundsPad":0.085,"transit":[{"id":"stresa-t1","name":"Transit / station area (refine in data)","mode":"rail","lat":45.7706,"lng":8.532},{"id":"stresa-t2","name":"City center link (refine in data)","mode":"rail","lat":45.7566,"lng":8.546}],"touristAnchors":[{"id":"stresa-core","label":"Stresa center","lat":45.7626,"lng":8.538}]},{"id":"bolzano","label":"Bolzano, Italy","countryCode":"IT","lat":46.4983,"lng":11.3548,"zoom":12,"boundsPad":0.085,"transit":[{"id":"bolzano-t1","name":"Transit / station area (refine in data)","mode":"rail","lat":46.5063,"lng":11.348799999999999},{"id":"bolzano-t2","name":"City center link (refine in data)","mode":"rail","lat":46.4923,"lng":11.362799999999998}],"touristAnchors":[{"id":"bolzano-core","label":"Bolzano center","lat":46.4983,"lng":11.3548}]},{"id":"merano","label":"Merano, Italy","countryCode":"IT","lat":46.668,"lng":11.159,"zoom":12,"boundsPad":0.085,"transit":[{"id":"merano-t1","name":"Transit / station area (refine in data)","mode":"rail","lat":46.676,"lng":11.153},{"id":"merano-t2","name":"City center link (refine in data)","mode":"rail","lat":46.662,"lng":11.167}],"touristAnchors":[{"id":"merano-core","label":"Merano center","lat":46.668,"lng":11.159}]},{"id":"cortina","label":"Cortina dAmpezzo, Italy","countryCode":"IT","lat":46.5369,"lng":12.1357,"zoom":12,"boundsPad":0.085,"transit":[{"id":"cortina-t1","name":"Transit / station area (refine in data)","mode":"rail","lat":46.544900000000005,"lng":12.1297},{"id":"cortina-t2","name":"City center link (refine in data)","mode":"rail","lat":46.5309,"lng":12.143699999999999}],"touristAnchors":[{"id":"cortina-core","label":"Cortina dAmpezzo center","lat":46.5369,"lng":12.1357}]},{"id":"taormina","label":"Taormina, Italy","countryCode":"IT","lat":37.8537,"lng":15.2885,"zoom":12,"boundsPad":0.085,"transit":[{"id":"taormina-t1","name":"Transit / station area (refine in data)","mode":"rail","lat":37.861700000000006,"lng":15.2825},{"id":"taormina-t2","name":"City center link (refine in data)","mode":"rail","lat":37.8477,"lng":15.2965}],"touristAnchors":[{"id":"taormina-core","label":"Taormina center","lat":37.8537,"lng":15.2885}]},{"id":"cefalu","label":"Cefalu, Italy","countryCode":"IT","lat":38.0386,"lng":14.0225,"zoom":12,"boundsPad":0.085,"transit":[{"id":"cefalu-t1","name":"Transit / station area (refine in data)","mode":"rail","lat":38.046600000000005,"lng":14.0165},{"id":"cefalu-t2","name":"City center link (refine in data)","mode":"rail","lat":38.0326,"lng":14.0305}],"touristAnchors":[{"id":"cefalu-core","label":"Cefalu center","lat":38.0386,"lng":14.0225}]},{"id":"palermo","label":"Palermo, Italy","countryCode":"IT","lat":38.1157,"lng":13.3615,"zoom":11,"boundsPad":0.085,"transit":[{"id":"palermo-t1","name":"Transit / station area (refine in data)","mode":"rail","lat":38.1237,"lng":13.3555},{"id":"palermo-t2","name":"City center link (refine in data)","mode":"rail","lat":38.1097,"lng":13.369499999999999}],"touristAnchors":[{"id":"palermo-core","label":"Palermo center","lat":38.1157,"lng":13.3615}]},{"id":"trapani","label":"Trapani, Italy","countryCode":"IT","lat":38.0176,"lng":12.5372,"zoom":12,"boundsPad":0.085,"transit":[{"id":"trapani-t1","name":"Transit / station area (refine in data)","mode":"rail","lat":38.025600000000004,"lng":12.5312},{"id":"trapani-t2","name":"City center link (refine in data)","mode":"rail","lat":38.0116,"lng":12.5452}],"touristAnchors":[{"id":"trapani-core","label":"Trapani center","lat":38.0176,"lng":12.5372}]},{"id":"agrigento","label":"Agrigento, Italy","countryCode":"IT","lat":37.311,"lng":13.5765,"zoom":12,"boundsPad":0.085,"transit":[{"id":"agrigento-t1","name":"Transit / station area (refine in data)","mode":"rail","lat":37.319,"lng":13.5705},{"id":"agrigento-t2","name":"City center link (refine in data)","mode":"rail","lat":37.305,"lng":13.584499999999998}],"touristAnchors":[{"id":"agrigento-core","label":"Agrigento center","lat":37.311,"lng":13.5765}]},{"id":"syracuse","label":"Syracuse, Italy","countryCode":"IT","lat":37.0755,"lng":15.2866,"zoom":12,"boundsPad":0.085,"transit":[{"id":"syracuse-t1","name":"Transit / station area (refine in data)","mode":"rail","lat":37.0835,"lng":15.2806},{"id":"syracuse-t2","name":"City center link (refine in data)","mode":"rail","lat":37.0695,"lng":15.294599999999999}],"touristAnchors":[{"id":"syracuse-core","label":"Syracuse center","lat":37.0755,"lng":15.2866}]},{"id":"catania","label":"Catania, Italy","countryCode":"IT","lat":37.5079,"lng":15.083,"zoom":11,"boundsPad":0.085,"transit":[{"id":"catania-t1","name":"Transit / station area (refine in data)","mode":"rail","lat":37.5159,"lng":15.077},{"id":"catania-t2","name":"City center link (refine in data)","mode":"rail","lat":37.5019,"lng":15.091}],"touristAnchors":[{"id":"catania-core","label":"Catania center","lat":37.5079,"lng":15.083}]},{"id":"ragusa","label":"Ragusa, Italy","countryCode":"IT","lat":36.9269,"lng":14.7255,"zoom":12,"boundsPad":0.085,"transit":[{"id":"ragusa-t1","name":"Transit / station area (refine in data)","mode":"rail","lat":36.934900000000006,"lng":14.7195},{"id":"ragusa-t2","name":"City center link (refine in data)","mode":"rail","lat":36.9209,"lng":14.7335}],"touristAnchors":[{"id":"ragusa-core","label":"Ragusa center","lat":36.9269,"lng":14.7255}]},{"id":"cagliari","label":"Cagliari, Italy","countryCode":"IT","lat":39.2238,"lng":9.1217,"zoom":11,"boundsPad":0.085,"transit":[{"id":"cagliari-t1","name":"Transit / station area (refine in data)","mode":"rail","lat":39.2318,"lng":9.1157},{"id":"cagliari-t2","name":"City center link (refine in data)","mode":"rail","lat":39.2178,"lng":9.1297}],"touristAnchors":[{"id":"cagliari-core","label":"Cagliari center","lat":39.2238,"lng":9.1217}]},{"id":"portoferraio","label":"Portoferraio, Italy","countryCode":"IT","lat":42.814,"lng":10.3264,"zoom":12,"boundsPad":0.085,"transit":[{"id":"portoferraio-t1","name":"Transit / station area (refine in data)","mode":"rail","lat":42.822,"lng":10.3204},{"id":"portoferraio-t2","name":"City center link (refine in data)","mode":"rail","lat":42.808,"lng":10.334399999999999}],"touristAnchors":[{"id":"portoferraio-core","label":"Portoferraio center","lat":42.814,"lng":10.3264}]},{"id":"portofino","label":"Portofino, Italy","countryCode":"IT","lat":44.3033,"lng":9.209,"zoom":13,"boundsPad":0.045,"transit":[{"id":"portofino-t1","name":"Transit / station area (refine in data)","mode":"rail","lat":44.3113,"lng":9.203},{"id":"portofino-t2","name":"City center link (refine in data)","mode":"rail","lat":44.2973,"lng":9.216999999999999}],"touristAnchors":[{"id":"portofino-core","label":"Portofino center","lat":44.3033,"lng":9.209}]},{"id":"rapallo","label":"Rapallo, Italy","countryCode":"IT","lat":44.3511,"lng":9.228,"zoom":12,"boundsPad":0.085,"transit":[{"id":"rapallo-t1","name":"Transit / station area (refine in data)","mode":"rail","lat":44.359100000000005,"lng":9.222},{"id":"rapallo-t2","name":"City center link (refine in data)","mode":"rail","lat":44.3451,"lng":9.235999999999999}],"touristAnchors":[{"id":"rapallo-core","label":"Rapallo center","lat":44.3511,"lng":9.228}]},{"id":"chiavari","label":"Chiavari, Italy","countryCode":"IT","lat":44.3177,"lng":9.3224,"zoom":12,"boundsPad":0.085,"transit":[{"id":"chiavari-t1","name":"Transit / station area (refine in data)","mode":"rail","lat":44.325700000000005,"lng":9.3164},{"id":"chiavari-t2","name":"City center link (refine in data)","mode":"rail","lat":44.3117,"lng":9.3304}],"touristAnchors":[{"id":"chiavari-core","label":"Chiavari center","lat":44.3177,"lng":9.3224}]},{"id":"orta","label":"Orta San Giulio, Italy","countryCode":"IT","lat":45.7982,"lng":8.4149,"zoom":13,"boundsPad":0.045,"transit":[{"id":"orta-t1","name":"Transit / station area (refine in data)","mode":"rail","lat":45.806200000000004,"lng":8.4089},{"id":"orta-t2","name":"City center link (refine in data)","mode":"rail","lat":45.7922,"lng":8.422899999999998}],"touristAnchors":[{"id":"orta-core","label":"Orta San Giulio center","lat":45.7982,"lng":8.4149}]},{"id":"orvieto","label":"Orvieto, Italy","countryCode":"IT","lat":42.7185,"lng":12.0959,"zoom":13,"boundsPad":0.045,"transit":[{"id":"orvieto-t1","name":"Transit / station area (refine in data)","mode":"rail","lat":42.7265,"lng":12.0899},{"id":"orvieto-t2","name":"City center link (refine in data)","mode":"rail","lat":42.7125,"lng":12.1039}],"touristAnchors":[{"id":"orvieto-core","label":"Orvieto center","lat":42.7185,"lng":12.0959}]},{"id":"spoleto","label":"Spoleto, Italy","countryCode":"IT","lat":42.7438,"lng":12.7383,"zoom":12,"boundsPad":0.085,"transit":[{"id":"spoleto-t1","name":"Transit / station area (refine in data)","mode":"rail","lat":42.7518,"lng":12.7323},{"id":"spoleto-t2","name":"City center link (refine in data)","mode":"rail","lat":42.7378,"lng":12.7463}],"touristAnchors":[{"id":"spoleto-core","label":"Spoleto center","lat":42.7438,"lng":12.7383}]},{"id":"montepulciano","label":"Montepulciano, Italy","countryCode":"IT","lat":43.0955,"lng":11.787,"zoom":13,"boundsPad":0.045,"transit":[{"id":"montepulciano-t1","name":"Transit / station area (refine in data)","mode":"rail","lat":43.103500000000004,"lng":11.781},{"id":"montepulciano-t2","name":"City center link (refine in data)","mode":"rail","lat":43.0895,"lng":11.795}],"touristAnchors":[{"id":"montepulciano-core","label":"Montepulciano center","lat":43.0955,"lng":11.787}]},{"id":"montalcino","label":"Montalcino, Italy","countryCode":"IT","lat":43.0583,"lng":11.49,"zoom":13,"boundsPad":0.045,"transit":[{"id":"montalcino-t1","name":"Transit / station area (refine in data)","mode":"rail","lat":43.066300000000005,"lng":11.484},{"id":"montalcino-t2","name":"City center link (refine in data)","mode":"rail","lat":43.0523,"lng":11.498}],"touristAnchors":[{"id":"montalcino-core","label":"Montalcino center","lat":43.0583,"lng":11.49}]},{"id":"cortona","label":"Cortona, Italy","countryCode":"IT","lat":43.2747,"lng":11.9852,"zoom":13,"boundsPad":0.045,"transit":[{"id":"cortona-t1","name":"Transit / station area (refine in data)","mode":"rail","lat":43.282700000000006,"lng":11.9792},{"id":"cortona-t2","name":"City center link (refine in data)","mode":"rail","lat":43.2687,"lng":11.9932}],"touristAnchors":[{"id":"cortona-core","label":"Cortona center","lat":43.2747,"lng":11.9852}]},{"id":"ascoli","label":"Ascoli Piceno, Italy","countryCode":"IT","lat":42.8534,"lng":13.5749,"zoom":12,"boundsPad":0.085,"transit":[{"id":"ascoli-t1","name":"Transit / station area (refine in data)","mode":"rail","lat":42.8614,"lng":13.5689},{"id":"ascoli-t2","name":"City center link (refine in data)","mode":"rail","lat":42.8474,"lng":13.582899999999999}],"touristAnchors":[{"id":"ascoli-core","label":"Ascoli Piceno center","lat":42.8534,"lng":13.5749}]},{"id":"ancona","label":"Ancona, Italy","countryCode":"IT","lat":43.6158,"lng":13.5189,"zoom":12,"boundsPad":0.085,"transit":[{"id":"ancona-t1","name":"Transit / station area (refine in data)","mode":"rail","lat":43.6238,"lng":13.5129},{"id":"ancona-t2","name":"City center link (refine in data)","mode":"rail","lat":43.6098,"lng":13.5269}],"touristAnchors":[{"id":"ancona-core","label":"Ancona center","lat":43.6158,"lng":13.5189}]},{"id":"pesaro","label":"Pesaro, Italy","countryCode":"IT","lat":43.9099,"lng":12.9134,"zoom":12,"boundsPad":0.085,"transit":[{"id":"pesaro-t1","name":"Transit / station area (refine in data)","mode":"rail","lat":43.9179,"lng":12.907399999999999},{"id":"pesaro-t2","name":"City center link (refine in data)","mode":"rail","lat":43.9039,"lng":12.921399999999998}],"touristAnchors":[{"id":"pesaro-core","label":"Pesaro center","lat":43.9099,"lng":12.9134}]},{"id":"rimini","label":"Rimini, Italy","countryCode":"IT","lat":44.0678,"lng":12.5695,"zoom":12,"boundsPad":0.085,"transit":[{"id":"rimini-t1","name":"Transit / station area (refine in data)","mode":"rail","lat":44.0758,"lng":12.5635},{"id":"rimini-t2","name":"City center link (refine in data)","mode":"rail","lat":44.0618,"lng":12.577499999999999}],"touristAnchors":[{"id":"rimini-core","label":"Rimini center","lat":44.0678,"lng":12.5695}]},{"id":"ravenna","label":"Ravenna, Italy","countryCode":"IT","lat":44.4184,"lng":12.2035,"zoom":12,"boundsPad":0.085,"transit":[{"id":"ravenna-t1","name":"Transit / station area (refine in data)","mode":"rail","lat":44.4264,"lng":12.1975},{"id":"ravenna-t2","name":"City center link (refine in data)","mode":"rail","lat":44.4124,"lng":12.2115}],"touristAnchors":[{"id":"ravenna-core","label":"Ravenna center","lat":44.4184,"lng":12.2035}]},{"id":"ferrara","label":"Ferrara, Italy","countryCode":"IT","lat":44.8381,"lng":11.6198,"zoom":12,"boundsPad":0.085,"transit":[{"id":"ferrara-t1","name":"Transit / station area (refine in data)","mode":"rail","lat":44.8461,"lng":11.6138},{"id":"ferrara-t2","name":"City center link (refine in data)","mode":"rail","lat":44.8321,"lng":11.627799999999999}],"touristAnchors":[{"id":"ferrara-core","label":"Ferrara center","lat":44.8381,"lng":11.6198}]},{"id":"modena","label":"Modena, Italy","countryCode":"IT","lat":44.6471,"lng":10.9252,"zoom":12,"boundsPad":0.085,"transit":[{"id":"modena-t1","name":"Transit / station area (refine in data)","mode":"rail","lat":44.655100000000004,"lng":10.9192},{"id":"modena-t2","name":"City center link (refine in data)","mode":"rail","lat":44.6411,"lng":10.9332}],"touristAnchors":[{"id":"modena-core","label":"Modena center","lat":44.6471,"lng":10.9252}]},{"id":"parma","label":"Parma, Italy","countryCode":"IT","lat":44.8015,"lng":10.3279,"zoom":12,"boundsPad":0.085,"transit":[{"id":"parma-t1","name":"Transit / station area (refine in data)","mode":"rail","lat":44.8095,"lng":10.3219},{"id":"parma-t2","name":"City center link (refine in data)","mode":"rail","lat":44.7955,"lng":10.335899999999999}],"touristAnchors":[{"id":"parma-core","label":"Parma center","lat":44.8015,"lng":10.3279}]},{"id":"reggio-emilia","label":"Reggio Emilia, Italy","countryCode":"IT","lat":44.6983,"lng":10.6311,"zoom":12,"boundsPad":0.085,"transit":[{"id":"reggio-emilia-t1","name":"Transit / station area (refine in data)","mode":"rail","lat":44.706300000000006,"lng":10.6251},{"id":"reggio-emilia-t2","name":"City center link (refine in data)","mode":"rail","lat":44.6923,"lng":10.6391}],"touristAnchors":[{"id":"reggio-emilia-core","label":"Reggio Emilia center","lat":44.6983,"lng":10.6311}]},{"id":"la-spezia","label":"La Spezia, Italy","countryCode":"IT","lat":44.1027,"lng":9.8241,"zoom":12,"boundsPad":0.085,"transit":[{"id":"la-spezia-t1","name":"Transit / station area (refine in data)","mode":"rail","lat":44.1107,"lng":9.8181},{"id":"la-spezia-t2","name":"City center link (refine in data)","mode":"rail","lat":44.0967,"lng":9.832099999999999}],"touristAnchors":[{"id":"la-spezia-core","label":"La Spezia center","lat":44.1027,"lng":9.8241}]},{"id":"cinque-terre-monterosso","label":"Monterosso al Mare, Italy","countryCode":"IT","lat":44.1463,"lng":9.6547,"zoom":13,"boundsPad":0.045,"transit":[{"id":"cinque-terre-monterosso-t1","name":"Transit / station area (refine in data)","mode":"rail","lat":44.1543,"lng":9.6487},{"id":"cinque-terre-monterosso-t2","name":"City center link (refine in data)","mode":"rail","lat":44.140299999999996,"lng":9.6627}],"touristAnchors":[{"id":"cinque-terre-monterosso-core","label":"Monterosso al Mare center","lat":44.1463,"lng":9.6547}]},{"id":"lubeck","label":"Lubeck, Germany","countryCode":"DE","lat":53.8655,"lng":10.6866,"zoom":12,"boundsPad":0.085,"transit":[{"id":"lubeck-t1","name":"Transit / station area (refine in data)","mode":"rail","lat":53.8735,"lng":10.6806},{"id":"lubeck-t2","name":"City center link (refine in data)","mode":"rail","lat":53.8595,"lng":10.6946}],"touristAnchors":[{"id":"lubeck-core","label":"Lubeck center","lat":53.8655,"lng":10.6866}]},{"id":"rostock","label":"Rostock, Germany","countryCode":"DE","lat":54.0887,"lng":12.1401,"zoom":11,"boundsPad":0.085,"transit":[{"id":"rostock-t1","name":"Transit / station area (refine in data)","mode":"rail","lat":54.096700000000006,"lng":12.1341},{"id":"rostock-t2","name":"City center link (refine in data)","mode":"rail","lat":54.0827,"lng":12.1481}],"touristAnchors":[{"id":"rostock-core","label":"Rostock center","lat":54.0887,"lng":12.1401}]},{"id":"kiel","label":"Kiel, Germany","countryCode":"DE","lat":54.3233,"lng":10.1228,"zoom":11,"boundsPad":0.085,"transit":[{"id":"kiel-t1","name":"Transit / station area (refine in data)","mode":"rail","lat":54.331300000000006,"lng":10.1168},{"id":"kiel-t2","name":"City center link (refine in data)","mode":"rail","lat":54.3173,"lng":10.130799999999999}],"touristAnchors":[{"id":"kiel-core","label":"Kiel center","lat":54.3233,"lng":10.1228}]},{"id":"hannover","label":"Hannover, Germany","countryCode":"DE","lat":52.3759,"lng":9.732,"zoom":11,"boundsPad":0.085,"transit":[{"id":"hannover-t1","name":"Transit / station area (refine in data)","mode":"rail","lat":52.383900000000004,"lng":9.725999999999999},{"id":"hannover-t2","name":"City center link (refine in data)","mode":"rail","lat":52.3699,"lng":9.739999999999998}],"touristAnchors":[{"id":"hannover-core","label":"Hannover center","lat":52.3759,"lng":9.732}]},{"id":"bremen","label":"Bremen, Germany","countryCode":"DE","lat":53.0793,"lng":8.8017,"zoom":11,"boundsPad":0.085,"transit":[{"id":"bremen-t1","name":"Transit / station area (refine in data)","mode":"rail","lat":53.087300000000006,"lng":8.7957},{"id":"bremen-t2","name":"City center link (refine in data)","mode":"rail","lat":53.0733,"lng":8.8097}],"touristAnchors":[{"id":"bremen-core","label":"Bremen center","lat":53.0793,"lng":8.8017}]},{"id":"essen","label":"Essen, Germany","countryCode":"DE","lat":51.4556,"lng":7.0116,"zoom":11,"boundsPad":0.085,"transit":[{"id":"essen-t1","name":"Transit / station area (refine in data)","mode":"rail","lat":51.4636,"lng":7.005599999999999},{"id":"essen-t2","name":"City center link (refine in data)","mode":"rail","lat":51.4496,"lng":7.0196}],"touristAnchors":[{"id":"essen-core","label":"Essen center","lat":51.4556,"lng":7.0116}]},{"id":"bonn","label":"Bonn, Germany","countryCode":"DE","lat":50.7374,"lng":7.0982,"zoom":12,"boundsPad":0.085,"transit":[{"id":"bonn-t1","name":"Transit / station area (refine in data)","mode":"rail","lat":50.745400000000004,"lng":7.0922},{"id":"bonn-t2","name":"City center link (refine in data)","mode":"rail","lat":50.7314,"lng":7.1062}],"touristAnchors":[{"id":"bonn-core","label":"Bonn center","lat":50.7374,"lng":7.0982}]},{"id":"mainz","label":"Mainz, Germany","countryCode":"DE","lat":49.9925,"lng":8.2573,"zoom":12,"boundsPad":0.085,"transit":[{"id":"mainz-t1","name":"Transit / station area (refine in data)","mode":"rail","lat":50.0005,"lng":8.2513},{"id":"mainz-t2","name":"City center link (refine in data)","mode":"rail","lat":49.9865,"lng":8.2653}],"touristAnchors":[{"id":"mainz-core","label":"Mainz center","lat":49.9925,"lng":8.2573}]},{"id":"koblenz","label":"Koblenz, Germany","countryCode":"DE","lat":50.3569,"lng":7.589,"zoom":12,"boundsPad":0.085,"transit":[{"id":"koblenz-t1","name":"Transit / station area (refine in data)","mode":"rail","lat":50.364900000000006,"lng":7.583},{"id":"koblenz-t2","name":"City center link (refine in data)","mode":"rail","lat":50.3509,"lng":7.597}],"touristAnchors":[{"id":"koblenz-core","label":"Koblenz center","lat":50.3569,"lng":7.589}]},{"id":"trier","label":"Trier, Germany","countryCode":"DE","lat":49.7596,"lng":6.6439,"zoom":12,"boundsPad":0.085,"transit":[{"id":"trier-t1","name":"Transit / station area (refine in data)","mode":"rail","lat":49.7676,"lng":6.6379},{"id":"trier-t2","name":"City center link (refine in data)","mode":"rail","lat":49.7536,"lng":6.6519}],"touristAnchors":[{"id":"trier-core","label":"Trier center","lat":49.7596,"lng":6.6439}]},{"id":"augsburg","label":"Augsburg, Germany","countryCode":"DE","lat":48.3705,"lng":10.8978,"zoom":11,"boundsPad":0.085,"transit":[{"id":"augsburg-t1","name":"Transit / station area (refine in data)","mode":"rail","lat":48.3785,"lng":10.8918},{"id":"augsburg-t2","name":"City center link (refine in data)","mode":"rail","lat":48.3645,"lng":10.9058}],"touristAnchors":[{"id":"augsburg-core","label":"Augsburg center","lat":48.3705,"lng":10.8978}]},{"id":"regensburg","label":"Regensburg, Germany","countryCode":"DE","lat":49.0134,"lng":12.1016,"zoom":12,"boundsPad":0.085,"transit":[{"id":"regensburg-t1","name":"Transit / station area (refine in data)","mode":"rail","lat":49.0214,"lng":12.0956},{"id":"regensburg-t2","name":"City center link (refine in data)","mode":"rail","lat":49.0074,"lng":12.109599999999999}],"touristAnchors":[{"id":"regensburg-core","label":"Regensburg center","lat":49.0134,"lng":12.1016}]},{"id":"passau","label":"Passau, Germany","countryCode":"DE","lat":48.5665,"lng":13.4312,"zoom":12,"boundsPad":0.085,"transit":[{"id":"passau-t1","name":"Transit / station area (refine in data)","mode":"rail","lat":48.5745,"lng":13.4252},{"id":"passau-t2","name":"City center link (refine in data)","mode":"rail","lat":48.5605,"lng":13.4392}],"touristAnchors":[{"id":"passau-core","label":"Passau center","lat":48.5665,"lng":13.4312}]},{"id":"wiesbaden","label":"Wiesbaden, Germany","countryCode":"DE","lat":50.0821,"lng":8.24,"zoom":12,"boundsPad":0.085,"transit":[{"id":"wiesbaden-t1","name":"Transit / station area (refine in data)","mode":"rail","lat":50.0901,"lng":8.234},{"id":"wiesbaden-t2","name":"City center link (refine in data)","mode":"rail","lat":50.0761,"lng":8.248}],"touristAnchors":[{"id":"wiesbaden-core","label":"Wiesbaden center","lat":50.0821,"lng":8.24}]},{"id":"heidelberg","label":"Heidelberg, Germany","countryCode":"DE","lat":49.3988,"lng":8.6724,"zoom":12,"boundsPad":0.085,"transit":[{"id":"heidelberg-t1","name":"Transit / station area (refine in data)","mode":"rail","lat":49.406800000000004,"lng":8.6664},{"id":"heidelberg-t2","name":"City center link (refine in data)","mode":"rail","lat":49.3928,"lng":8.680399999999999}],"touristAnchors":[{"id":"heidelberg-core","label":"Heidelberg center","lat":49.3988,"lng":8.6724}]},{"id":"freiburg","label":"Freiburg, Germany","countryCode":"DE","lat":47.999,"lng":7.8421,"zoom":12,"boundsPad":0.085,"transit":[{"id":"freiburg-t1","name":"Transit / station area (refine in data)","mode":"rail","lat":48.007000000000005,"lng":7.8361},{"id":"freiburg-t2","name":"City center link (refine in data)","mode":"rail","lat":47.993,"lng":7.8501}],"touristAnchors":[{"id":"freiburg-core","label":"Freiburg center","lat":47.999,"lng":7.8421}]},{"id":"garmisch","label":"Garmisch-Partenkirchen, Germany","countryCode":"DE","lat":47.4921,"lng":11.0963,"zoom":12,"boundsPad":0.085,"transit":[{"id":"garmisch-t1","name":"Transit / station area (refine in data)","mode":"rail","lat":47.5001,"lng":11.0903},{"id":"garmisch-t2","name":"City center link (refine in data)","mode":"rail","lat":47.4861,"lng":11.104299999999999}],"touristAnchors":[{"id":"garmisch-core","label":"Garmisch-Partenkirchen center","lat":47.4921,"lng":11.0963}]},{"id":"rugen-binz","label":"Binz, Germany","countryCode":"DE","lat":54.4,"lng":13.61,"zoom":12,"boundsPad":0.085,"transit":[{"id":"rugen-binz-t1","name":"Transit / station area (refine in data)","mode":"rail","lat":54.408,"lng":13.604},{"id":"rugen-binz-t2","name":"City center link (refine in data)","mode":"rail","lat":54.394,"lng":13.617999999999999}],"touristAnchors":[{"id":"rugen-binz-core","label":"Binz center","lat":54.4,"lng":13.61}]},{"id":"erfurt","label":"Erfurt, Germany","countryCode":"DE","lat":50.9848,"lng":11.0299,"zoom":12,"boundsPad":0.085,"transit":[{"id":"erfurt-t1","name":"Transit / station area (refine in data)","mode":"rail","lat":50.9928,"lng":11.0239},{"id":"erfurt-t2","name":"City center link (refine in data)","mode":"rail","lat":50.9788,"lng":11.037899999999999}],"touristAnchors":[{"id":"erfurt-core","label":"Erfurt center","lat":50.9848,"lng":11.0299}]},{"id":"weimar","label":"Weimar, Germany","countryCode":"DE","lat":50.9795,"lng":11.3235,"zoom":13,"boundsPad":0.045,"transit":[{"id":"weimar-t1","name":"Transit / station area (refine in data)","mode":"rail","lat":50.987500000000004,"lng":11.317499999999999},{"id":"weimar-t2","name":"City center link (refine in data)","mode":"rail","lat":50.9735,"lng":11.331499999999998}],"touristAnchors":[{"id":"weimar-core","label":"Weimar center","lat":50.9795,"lng":11.3235}]},{"id":"potsdam","label":"Potsdam, Germany","countryCode":"DE","lat":52.3906,"lng":13.0645,"zoom":12,"boundsPad":0.085,"transit":[{"id":"potsdam-t1","name":"Transit / station area (refine in data)","mode":"rail","lat":52.3986,"lng":13.0585},{"id":"potsdam-t2","name":"City center link (refine in data)","mode":"rail","lat":52.3846,"lng":13.0725}],"touristAnchors":[{"id":"potsdam-core","label":"Potsdam center","lat":52.3906,"lng":13.0645}]},{"id":"schwerin","label":"Schwerin, Germany","countryCode":"DE","lat":53.6355,"lng":11.4012,"zoom":12,"boundsPad":0.085,"transit":[{"id":"schwerin-t1","name":"Transit / station area (refine in data)","mode":"rail","lat":53.6435,"lng":11.395199999999999},{"id":"schwerin-t2","name":"City center link (refine in data)","mode":"rail","lat":53.6295,"lng":11.409199999999998}],"touristAnchors":[{"id":"schwerin-core","label":"Schwerin center","lat":53.6355,"lng":11.4012}]},{"id":"magdeburg","label":"Magdeburg, Germany","countryCode":"DE","lat":52.1205,"lng":11.6276,"zoom":11,"boundsPad":0.085,"transit":[{"id":"magdeburg-t1","name":"Transit / station area (refine in data)","mode":"rail","lat":52.1285,"lng":11.621599999999999},{"id":"magdeburg-t2","name":"City center link (refine in data)","mode":"rail","lat":52.1145,"lng":11.635599999999998}],"touristAnchors":[{"id":"magdeburg-core","label":"Magdeburg center","lat":52.1205,"lng":11.6276}]},{"id":"ulm","label":"Ulm, Germany","countryCode":"DE","lat":48.3984,"lng":9.9916,"zoom":12,"boundsPad":0.085,"transit":[{"id":"ulm-t1","name":"Transit / station area (refine in data)","mode":"rail","lat":48.406400000000005,"lng":9.9856},{"id":"ulm-t2","name":"City center link (refine in data)","mode":"rail","lat":48.3924,"lng":9.9996}],"touristAnchors":[{"id":"ulm-core","label":"Ulm center","lat":48.3984,"lng":9.9916}]},{"id":"konstanz","label":"Konstanz, Germany","countryCode":"DE","lat":47.6633,"lng":9.1752,"zoom":12,"boundsPad":0.085,"transit":[{"id":"konstanz-t1","name":"Transit / station area (refine in data)","mode":"rail","lat":47.6713,"lng":9.1692},{"id":"konstanz-t2","name":"City center link (refine in data)","mode":"rail","lat":47.6573,"lng":9.1832}],"touristAnchors":[{"id":"konstanz-core","label":"Konstanz center","lat":47.6633,"lng":9.1752}]},{"id":"lindau","label":"Lindau, Germany","countryCode":"DE","lat":47.5461,"lng":9.6843,"zoom":13,"boundsPad":0.045,"transit":[{"id":"lindau-t1","name":"Transit / station area (refine in data)","mode":"rail","lat":47.554100000000005,"lng":9.6783},{"id":"lindau-t2","name":"City center link (refine in data)","mode":"rail","lat":47.5401,"lng":9.6923}],"touristAnchors":[{"id":"lindau-core","label":"Lindau center","lat":47.5461,"lng":9.6843}]},{"id":"zagreb","label":"Zagreb, Croatia","countryCode":"HR","lat":45.815,"lng":15.9819,"zoom":11,"boundsPad":0.085,"transit":[{"id":"zagreb-t1","name":"Transit / station area (refine in data)","mode":"rail","lat":45.823,"lng":15.9759},{"id":"zagreb-t2","name":"City center link (refine in data)","mode":"rail","lat":45.809,"lng":15.989899999999999}],"touristAnchors":[{"id":"zagreb-core","label":"Zagreb center","lat":45.815,"lng":15.9819}]},{"id":"split","label":"Split, Croatia","countryCode":"HR","lat":43.5081,"lng":16.4402,"zoom":12,"boundsPad":0.085,"transit":[{"id":"split-t1","name":"Transit / station area (refine in data)","mode":"rail","lat":43.5161,"lng":16.4342},{"id":"split-t2","name":"City center link (refine in data)","mode":"rail","lat":43.5021,"lng":16.4482}],"touristAnchors":[{"id":"split-core","label":"Split center","lat":43.5081,"lng":16.4402}]},{"id":"dubrovnik","label":"Dubrovnik, Croatia","countryCode":"HR","lat":42.6507,"lng":18.0944,"zoom":12,"boundsPad":0.085,"transit":[{"id":"dubrovnik-t1","name":"Transit / station area (refine in data)","mode":"rail","lat":42.6587,"lng":18.0884},{"id":"dubrovnik-t2","name":"City center link (refine in data)","mode":"rail","lat":42.6447,"lng":18.1024}],"touristAnchors":[{"id":"dubrovnik-core","label":"Dubrovnik center","lat":42.6507,"lng":18.0944}]},{"id":"zadar","label":"Zadar, Croatia","countryCode":"HR","lat":44.1194,"lng":15.2314,"zoom":12,"boundsPad":0.085,"transit":[{"id":"zadar-t1","name":"Transit / station area (refine in data)","mode":"rail","lat":44.1274,"lng":15.2254},{"id":"zadar-t2","name":"City center link (refine in data)","mode":"rail","lat":44.1134,"lng":15.2394}],"touristAnchors":[{"id":"zadar-core","label":"Zadar center","lat":44.1194,"lng":15.2314}]},{"id":"rijeka","label":"Rijeka, Croatia","countryCode":"HR","lat":45.3271,"lng":14.4422,"zoom":12,"boundsPad":0.085,"transit":[{"id":"rijeka-t1","name":"Transit / station area (refine in data)","mode":"rail","lat":45.335100000000004,"lng":14.4362},{"id":"rijeka-t2","name":"City center link (refine in data)","mode":"rail","lat":45.3211,"lng":14.450199999999999}],"touristAnchors":[{"id":"rijeka-core","label":"Rijeka center","lat":45.3271,"lng":14.4422}]},{"id":"pula","label":"Pula, Croatia","countryCode":"HR","lat":44.8666,"lng":13.8496,"zoom":12,"boundsPad":0.085,"transit":[{"id":"pula-t1","name":"Transit / station area (refine in data)","mode":"rail","lat":44.8746,"lng":13.8436},{"id":"pula-t2","name":"City center link (refine in data)","mode":"rail","lat":44.8606,"lng":13.8576}],"touristAnchors":[{"id":"pula-core","label":"Pula center","lat":44.8666,"lng":13.8496}]},{"id":"hvar-town","label":"Hvar, Croatia","countryCode":"HR","lat":43.1729,"lng":16.4417,"zoom":13,"boundsPad":0.045,"transit":[{"id":"hvar-town-t1","name":"Transit / station area (refine in data)","mode":"rail","lat":43.1809,"lng":16.4357},{"id":"hvar-town-t2","name":"City center link (refine in data)","mode":"rail","lat":43.1669,"lng":16.4497}],"touristAnchors":[{"id":"hvar-town-core","label":"Hvar center","lat":43.1729,"lng":16.4417}]},{"id":"korcula","label":"Korcula, Croatia","countryCode":"HR","lat":42.9614,"lng":17.1352,"zoom":13,"boundsPad":0.045,"transit":[{"id":"korcula-t1","name":"Transit / station area (refine in data)","mode":"rail","lat":42.9694,"lng":17.1292},{"id":"korcula-t2","name":"City center link (refine in data)","mode":"rail","lat":42.9554,"lng":17.1432}],"touristAnchors":[{"id":"korcula-core","label":"Korcula center","lat":42.9614,"lng":17.1352}]},{"id":"rovinj","label":"Rovinj, Croatia","countryCode":"HR","lat":45.0812,"lng":13.6407,"zoom":13,"boundsPad":0.045,"transit":[{"id":"rovinj-t1","name":"Transit / station area (refine in data)","mode":"rail","lat":45.089200000000005,"lng":13.6347},{"id":"rovinj-t2","name":"City center link (refine in data)","mode":"rail","lat":45.0752,"lng":13.6487}],"touristAnchors":[{"id":"rovinj-core","label":"Rovinj center","lat":45.0812,"lng":13.6407}]},{"id":"opatija","label":"Opatija, Croatia","countryCode":"HR","lat":45.3376,"lng":14.305,"zoom":12,"boundsPad":0.085,"transit":[{"id":"opatija-t1","name":"Transit / station area (refine in data)","mode":"rail","lat":45.345600000000005,"lng":14.299},{"id":"opatija-t2","name":"City center link (refine in data)","mode":"rail","lat":45.3316,"lng":14.312999999999999}],"touristAnchors":[{"id":"opatija-core","label":"Opatija center","lat":45.3376,"lng":14.305}]},{"id":"vienna","label":"Vienna, Austria","countryCode":"AT","lat":48.2082,"lng":16.3738,"zoom":11,"boundsPad":0.085,"transit":[{"id":"vienna-t1","name":"Transit / station area (refine in data)","mode":"rail","lat":48.2162,"lng":16.3678},{"id":"vienna-t2","name":"City center link (refine in data)","mode":"rail","lat":48.2022,"lng":16.3818}],"touristAnchors":[{"id":"vienna-core","label":"Vienna center","lat":48.2082,"lng":16.3738}]},{"id":"salzburg","label":"Salzburg, Austria","countryCode":"AT","lat":47.8095,"lng":13.055,"zoom":12,"boundsPad":0.085,"transit":[{"id":"salzburg-t1","name":"Transit / station area (refine in data)","mode":"rail","lat":47.8175,"lng":13.049},{"id":"salzburg-t2","name":"City center link (refine in data)","mode":"rail","lat":47.8035,"lng":13.062999999999999}],"touristAnchors":[{"id":"salzburg-core","label":"Salzburg center","lat":47.8095,"lng":13.055}]},{"id":"innsbruck","label":"Innsbruck, Austria","countryCode":"AT","lat":47.2692,"lng":11.4041,"zoom":12,"boundsPad":0.085,"transit":[{"id":"innsbruck-t1","name":"Transit / station area (refine in data)","mode":"rail","lat":47.2772,"lng":11.3981},{"id":"innsbruck-t2","name":"City center link (refine in data)","mode":"rail","lat":47.2632,"lng":11.412099999999999}],"touristAnchors":[{"id":"innsbruck-core","label":"Innsbruck center","lat":47.2692,"lng":11.4041}]},{"id":"graz","label":"Graz, Austria","countryCode":"AT","lat":47.0707,"lng":15.4395,"zoom":12,"boundsPad":0.085,"transit":[{"id":"graz-t1","name":"Transit / station area (refine in data)","mode":"rail","lat":47.078700000000005,"lng":15.4335},{"id":"graz-t2","name":"City center link (refine in data)","mode":"rail","lat":47.0647,"lng":15.4475}],"touristAnchors":[{"id":"graz-core","label":"Graz center","lat":47.0707,"lng":15.4395}]},{"id":"linz","label":"Linz, Austria","countryCode":"AT","lat":48.3069,"lng":14.2858,"zoom":12,"boundsPad":0.085,"transit":[{"id":"linz-t1","name":"Transit / station area (refine in data)","mode":"rail","lat":48.3149,"lng":14.2798},{"id":"linz-t2","name":"City center link (refine in data)","mode":"rail","lat":48.3009,"lng":14.2938}],"touristAnchors":[{"id":"linz-core","label":"Linz center","lat":48.3069,"lng":14.2858}]},{"id":"hallstatt","label":"Hallstatt, Austria","countryCode":"AT","lat":47.5622,"lng":13.6493,"zoom":13,"boundsPad":0.045,"transit":[{"id":"hallstatt-t1","name":"Transit / station area (refine in data)","mode":"rail","lat":47.5702,"lng":13.6433},{"id":"hallstatt-t2","name":"City center link (refine in data)","mode":"rail","lat":47.5562,"lng":13.6573}],"touristAnchors":[{"id":"hallstatt-core","label":"Hallstatt center","lat":47.5622,"lng":13.6493}]},{"id":"badgastein","label":"Bad Gastein, Austria","countryCode":"AT","lat":47.1167,"lng":13.1356,"zoom":12,"boundsPad":0.085,"transit":[{"id":"badgastein-t1","name":"Transit / station area (refine in data)","mode":"rail","lat":47.124700000000004,"lng":13.1296},{"id":"badgastein-t2","name":"City center link (refine in data)","mode":"rail","lat":47.1107,"lng":13.1436}],"touristAnchors":[{"id":"badgastein-core","label":"Bad Gastein center","lat":47.1167,"lng":13.1356}]},{"id":"klagenfurt","label":"Klagenfurt, Austria","countryCode":"AT","lat":46.6247,"lng":14.3053,"zoom":12,"boundsPad":0.085,"transit":[{"id":"klagenfurt-t1","name":"Transit / station area (refine in data)","mode":"rail","lat":46.6327,"lng":14.2993},{"id":"klagenfurt-t2","name":"City center link (refine in data)","mode":"rail","lat":46.6187,"lng":14.3133}],"touristAnchors":[{"id":"klagenfurt-core","label":"Klagenfurt center","lat":46.6247,"lng":14.3053}]},{"id":"bregenz","label":"Bregenz, Austria","countryCode":"AT","lat":47.5031,"lng":9.7471,"zoom":12,"boundsPad":0.085,"transit":[{"id":"bregenz-t1","name":"Transit / station area (refine in data)","mode":"rail","lat":47.511100000000006,"lng":9.7411},{"id":"bregenz-t2","name":"City center link (refine in data)","mode":"rail","lat":47.4971,"lng":9.755099999999999}],"touristAnchors":[{"id":"bregenz-core","label":"Bregenz center","lat":47.5031,"lng":9.7471}]},{"id":"zell-am-see","label":"Zell am See, Austria","countryCode":"AT","lat":47.3245,"lng":12.7968,"zoom":12,"boundsPad":0.085,"transit":[{"id":"zell-am-see-t1","name":"Transit / station area (refine in data)","mode":"rail","lat":47.3325,"lng":12.790799999999999},{"id":"zell-am-see-t2","name":"City center link (refine in data)","mode":"rail","lat":47.3185,"lng":12.804799999999998}],"touristAnchors":[{"id":"zell-am-see-core","label":"Zell am See center","lat":47.3245,"lng":12.7968}]},{"id":"madrid","label":"Madrid, Spain","countryCode":"ES","lat":40.4168,"lng":-3.7038,"zoom":11,"boundsPad":0.085,"transit":[{"id":"madrid-t1","name":"Transit / station area (refine in data)","mode":"rail","lat":40.424800000000005,"lng":-3.7098},{"id":"madrid-t2","name":"City center link (refine in data)","mode":"rail","lat":40.4108,"lng":-3.6958}],"touristAnchors":[{"id":"madrid-core","label":"Madrid center","lat":40.4168,"lng":-3.7038}]},{"id":"barcelona","label":"Barcelona, Spain","countryCode":"ES","lat":41.3851,"lng":2.1734,"zoom":11,"boundsPad":0.085,"transit":[{"id":"barcelona-t1","name":"Transit / station area (refine in data)","mode":"rail","lat":41.393100000000004,"lng":2.1674},{"id":"barcelona-t2","name":"City center link (refine in data)","mode":"rail","lat":41.3791,"lng":2.1814}],"touristAnchors":[{"id":"barcelona-core","label":"Barcelona center","lat":41.3851,"lng":2.1734}]},{"id":"valencia","label":"Valencia, Spain","countryCode":"ES","lat":39.4699,"lng":-0.3763,"zoom":11,"boundsPad":0.085,"transit":[{"id":"valencia-t1","name":"Transit / station area (refine in data)","mode":"rail","lat":39.477900000000005,"lng":-0.38230000000000003},{"id":"valencia-t2","name":"City center link (refine in data)","mode":"rail","lat":39.4639,"lng":-0.3683}],"touristAnchors":[{"id":"valencia-core","label":"Valencia center","lat":39.4699,"lng":-0.3763}]},{"id":"seville","label":"Seville, Spain","countryCode":"ES","lat":37.3891,"lng":-5.9845,"zoom":12,"boundsPad":0.085,"transit":[{"id":"seville-t1","name":"Transit / station area (refine in data)","mode":"rail","lat":37.3971,"lng":-5.9905},{"id":"seville-t2","name":"City center link (refine in data)","mode":"rail","lat":37.3831,"lng":-5.9765}],"touristAnchors":[{"id":"seville-core","label":"Seville center","lat":37.3891,"lng":-5.9845}]},{"id":"malaga","label":"Malaga, Spain","countryCode":"ES","lat":36.7213,"lng":-4.4214,"zoom":12,"boundsPad":0.085,"transit":[{"id":"malaga-t1","name":"Transit / station area (refine in data)","mode":"rail","lat":36.7293,"lng":-4.4274000000000004},{"id":"malaga-t2","name":"City center link (refine in data)","mode":"rail","lat":36.7153,"lng":-4.4134}],"touristAnchors":[{"id":"malaga-core","label":"Malaga center","lat":36.7213,"lng":-4.4214}]},{"id":"bilbao","label":"Bilbao, Spain","countryCode":"ES","lat":43.2627,"lng":-2.9253,"zoom":12,"boundsPad":0.085,"transit":[{"id":"bilbao-t1","name":"Transit / station area (refine in data)","mode":"rail","lat":43.270700000000005,"lng":-2.9313},{"id":"bilbao-t2","name":"City center link (refine in data)","mode":"rail","lat":43.2567,"lng":-2.9173}],"touristAnchors":[{"id":"bilbao-core","label":"Bilbao center","lat":43.2627,"lng":-2.9253}]},{"id":"granada","label":"Granada, Spain","countryCode":"ES","lat":37.1773,"lng":-3.5986,"zoom":12,"boundsPad":0.085,"transit":[{"id":"granada-t1","name":"Transit / station area (refine in data)","mode":"rail","lat":37.185300000000005,"lng":-3.6045999999999996},{"id":"granada-t2","name":"City center link (refine in data)","mode":"rail","lat":37.1713,"lng":-3.5906}],"touristAnchors":[{"id":"granada-core","label":"Granada center","lat":37.1773,"lng":-3.5986}]},{"id":"cordoba","label":"Cordoba, Spain","countryCode":"ES","lat":37.8882,"lng":-4.7794,"zoom":12,"boundsPad":0.085,"transit":[{"id":"cordoba-t1","name":"Transit / station area (refine in data)","mode":"rail","lat":37.8962,"lng":-4.7854},{"id":"cordoba-t2","name":"City center link (refine in data)","mode":"rail","lat":37.8822,"lng":-4.7714}],"touristAnchors":[{"id":"cordoba-core","label":"Cordoba center","lat":37.8882,"lng":-4.7794}]},{"id":"toledo","label":"Toledo, Spain","countryCode":"ES","lat":39.8628,"lng":-4.0273,"zoom":13,"boundsPad":0.045,"transit":[{"id":"toledo-t1","name":"Transit / station area (refine in data)","mode":"rail","lat":39.8708,"lng":-4.0333000000000006},{"id":"toledo-t2","name":"City center link (refine in data)","mode":"rail","lat":39.8568,"lng":-4.0193}],"touristAnchors":[{"id":"toledo-core","label":"Toledo center","lat":39.8628,"lng":-4.0273}]},{"id":"salamanca","label":"Salamanca, Spain","countryCode":"ES","lat":40.9701,"lng":-5.6635,"zoom":12,"boundsPad":0.085,"transit":[{"id":"salamanca-t1","name":"Transit / station area (refine in data)","mode":"rail","lat":40.978100000000005,"lng":-5.6695},{"id":"salamanca-t2","name":"City center link (refine in data)","mode":"rail","lat":40.9641,"lng":-5.6555}],"touristAnchors":[{"id":"salamanca-core","label":"Salamanca center","lat":40.9701,"lng":-5.6635}]},{"id":"santiago","label":"Santiago de Compostela, Spain","countryCode":"ES","lat":42.8782,"lng":-8.5448,"zoom":12,"boundsPad":0.085,"transit":[{"id":"santiago-t1","name":"Transit / station area (refine in data)","mode":"rail","lat":42.8862,"lng":-8.5508},{"id":"santiago-t2","name":"City center link (refine in data)","mode":"rail","lat":42.8722,"lng":-8.536800000000001}],"touristAnchors":[{"id":"santiago-core","label":"Santiago de Compostela center","lat":42.8782,"lng":-8.5448}]},{"id":"palma","label":"Palma, Spain","countryCode":"ES","lat":39.5696,"lng":2.6502,"zoom":11,"boundsPad":0.085,"transit":[{"id":"palma-t1","name":"Transit / station area (refine in data)","mode":"rail","lat":39.577600000000004,"lng":2.6442},{"id":"palma-t2","name":"City center link (refine in data)","mode":"rail","lat":39.5636,"lng":2.6582}],"touristAnchors":[{"id":"palma-core","label":"Palma center","lat":39.5696,"lng":2.6502}]},{"id":"zaragoza","label":"Zaragoza, Spain","countryCode":"ES","lat":41.6488,"lng":-0.8891,"zoom":11,"boundsPad":0.085,"transit":[{"id":"zaragoza-t1","name":"Transit / station area (refine in data)","mode":"rail","lat":41.656800000000004,"lng":-0.8951},{"id":"zaragoza-t2","name":"City center link (refine in data)","mode":"rail","lat":41.6428,"lng":-0.8811}],"touristAnchors":[{"id":"zaragoza-core","label":"Zaragoza center","lat":41.6488,"lng":-0.8891}]},{"id":"alicante","label":"Alicante, Spain","countryCode":"ES","lat":38.3452,"lng":-0.481,"zoom":12,"boundsPad":0.085,"transit":[{"id":"alicante-t1","name":"Transit / station area (refine in data)","mode":"rail","lat":38.3532,"lng":-0.487},{"id":"alicante-t2","name":"City center link (refine in data)","mode":"rail","lat":38.3392,"lng":-0.473}],"touristAnchors":[{"id":"alicante-core","label":"Alicante center","lat":38.3452,"lng":-0.481}]},{"id":"san-sebastian","label":"San Sebastian, Spain","countryCode":"ES","lat":43.3183,"lng":-1.9812,"zoom":12,"boundsPad":0.085,"transit":[{"id":"san-sebastian-t1","name":"Transit / station area (refine in data)","mode":"rail","lat":43.3263,"lng":-1.9872},{"id":"san-sebastian-t2","name":"City center link (refine in data)","mode":"rail","lat":43.3123,"lng":-1.9732}],"touristAnchors":[{"id":"san-sebastian-core","label":"San Sebastian center","lat":43.3183,"lng":-1.9812}]},{"id":"sitges","label":"Sitges, Spain","countryCode":"ES","lat":41.237,"lng":1.8057,"zoom":12,"boundsPad":0.085,"transit":[{"id":"sitges-t1","name":"Transit / station area (refine in data)","mode":"rail","lat":41.245000000000005,"lng":1.7997},{"id":"sitges-t2","name":"City center link (refine in data)","mode":"rail","lat":41.231,"lng":1.8137}],"touristAnchors":[{"id":"sitges-core","label":"Sitges center","lat":41.237,"lng":1.8057}]},{"id":"girona","label":"Girona, Spain","countryCode":"ES","lat":41.9794,"lng":2.8214,"zoom":12,"boundsPad":0.085,"transit":[{"id":"girona-t1","name":"Transit / station area (refine in data)","mode":"rail","lat":41.9874,"lng":2.8154000000000003},{"id":"girona-t2","name":"City center link (refine in data)","mode":"rail","lat":41.9734,"lng":2.8294}],"touristAnchors":[{"id":"girona-core","label":"Girona center","lat":41.9794,"lng":2.8214}]},{"id":"cadiz","label":"Cadiz, Spain","countryCode":"ES","lat":36.5271,"lng":-6.2886,"zoom":12,"boundsPad":0.085,"transit":[{"id":"cadiz-t1","name":"Transit / station area (refine in data)","mode":"rail","lat":36.5351,"lng":-6.2946},{"id":"cadiz-t2","name":"City center link (refine in data)","mode":"rail","lat":36.5211,"lng":-6.2806}],"touristAnchors":[{"id":"cadiz-core","label":"Cadiz center","lat":36.5271,"lng":-6.2886}]},{"id":"jerez","label":"Jerez de la Frontera, Spain","countryCode":"ES","lat":36.6865,"lng":-6.1361,"zoom":12,"boundsPad":0.085,"transit":[{"id":"jerez-t1","name":"Transit / station area (refine in data)","mode":"rail","lat":36.694500000000005,"lng":-6.1421},{"id":"jerez-t2","name":"City center link (refine in data)","mode":"rail","lat":36.6805,"lng":-6.1281}],"touristAnchors":[{"id":"jerez-core","label":"Jerez de la Frontera center","lat":36.6865,"lng":-6.1361}]},{"id":"ronda","label":"Ronda, Spain","countryCode":"ES","lat":36.7423,"lng":-5.1671,"zoom":13,"boundsPad":0.045,"transit":[{"id":"ronda-t1","name":"Transit / station area (refine in data)","mode":"rail","lat":36.7503,"lng":-5.1731},{"id":"ronda-t2","name":"City center link (refine in data)","mode":"rail","lat":36.7363,"lng":-5.1591}],"touristAnchors":[{"id":"ronda-core","label":"Ronda center","lat":36.7423,"lng":-5.1671}]},{"id":"nerja","label":"Nerja, Spain","countryCode":"ES","lat":36.745,"lng":-3.8764,"zoom":12,"boundsPad":0.085,"transit":[{"id":"nerja-t1","name":"Transit / station area (refine in data)","mode":"rail","lat":36.753,"lng":-3.8823999999999996},{"id":"nerja-t2","name":"City center link (refine in data)","mode":"rail","lat":36.739,"lng":-3.8684}],"touristAnchors":[{"id":"nerja-core","label":"Nerja center","lat":36.745,"lng":-3.8764}]},{"id":"ibiza-town","label":"Ibiza, Spain","countryCode":"ES","lat":38.9067,"lng":1.4206,"zoom":12,"boundsPad":0.085,"transit":[{"id":"ibiza-town-t1","name":"Transit / station area (refine in data)","mode":"rail","lat":38.9147,"lng":1.4146},{"id":"ibiza-town-t2","name":"City center link (refine in data)","mode":"rail","lat":38.9007,"lng":1.4286}],"touristAnchors":[{"id":"ibiza-town-core","label":"Ibiza center","lat":38.9067,"lng":1.4206}]},{"id":"dublin","label":"Dublin, Ireland","countryCode":"IE","lat":53.3498,"lng":-6.2603,"zoom":11,"boundsPad":0.085,"transit":[{"id":"dublin-t1","name":"Transit / station area (refine in data)","mode":"rail","lat":53.357800000000005,"lng":-6.2663},{"id":"dublin-t2","name":"City center link (refine in data)","mode":"rail","lat":53.3438,"lng":-6.2523}],"touristAnchors":[{"id":"dublin-core","label":"Dublin center","lat":53.3498,"lng":-6.2603}]},{"id":"cork","label":"Cork, Ireland","countryCode":"IE","lat":51.8985,"lng":-8.4756,"zoom":12,"boundsPad":0.085,"transit":[{"id":"cork-t1","name":"Transit / station area (refine in data)","mode":"rail","lat":51.9065,"lng":-8.4816},{"id":"cork-t2","name":"City center link (refine in data)","mode":"rail","lat":51.8925,"lng":-8.467600000000001}],"touristAnchors":[{"id":"cork-core","label":"Cork center","lat":51.8985,"lng":-8.4756}]},{"id":"galway","label":"Galway, Ireland","countryCode":"IE","lat":53.2707,"lng":-9.0568,"zoom":12,"boundsPad":0.085,"transit":[{"id":"galway-t1","name":"Transit / station area (refine in data)","mode":"rail","lat":53.2787,"lng":-9.062800000000001},{"id":"galway-t2","name":"City center link (refine in data)","mode":"rail","lat":53.2647,"lng":-9.048800000000002}],"touristAnchors":[{"id":"galway-core","label":"Galway center","lat":53.2707,"lng":-9.0568}]},{"id":"limerick","label":"Limerick, Ireland","countryCode":"IE","lat":52.6638,"lng":-8.6267,"zoom":12,"boundsPad":0.085,"transit":[{"id":"limerick-t1","name":"Transit / station area (refine in data)","mode":"rail","lat":52.671800000000005,"lng":-8.6327},{"id":"limerick-t2","name":"City center link (refine in data)","mode":"rail","lat":52.6578,"lng":-8.6187}],"touristAnchors":[{"id":"limerick-core","label":"Limerick center","lat":52.6638,"lng":-8.6267}]},{"id":"killarney","label":"Killarney, Ireland","countryCode":"IE","lat":52.0599,"lng":-9.5078,"zoom":12,"boundsPad":0.085,"transit":[{"id":"killarney-t1","name":"Transit / station area (refine in data)","mode":"rail","lat":52.0679,"lng":-9.5138},{"id":"killarney-t2","name":"City center link (refine in data)","mode":"rail","lat":52.0539,"lng":-9.4998}],"touristAnchors":[{"id":"killarney-core","label":"Killarney center","lat":52.0599,"lng":-9.5078}]},{"id":"waterford","label":"Waterford, Ireland","countryCode":"IE","lat":52.2593,"lng":-7.1111,"zoom":12,"boundsPad":0.085,"transit":[{"id":"waterford-t1","name":"Transit / station area (refine in data)","mode":"rail","lat":52.267300000000006,"lng":-7.117100000000001},{"id":"waterford-t2","name":"City center link (refine in data)","mode":"rail","lat":52.2533,"lng":-7.1031}],"touristAnchors":[{"id":"waterford-core","label":"Waterford center","lat":52.2593,"lng":-7.1111}]},{"id":"copenhagen","label":"Copenhagen, Denmark","countryCode":"DK","lat":55.6761,"lng":12.5683,"zoom":11,"boundsPad":0.085,"transit":[{"id":"copenhagen-t1","name":"Transit / station area (refine in data)","mode":"rail","lat":55.6841,"lng":12.5623},{"id":"copenhagen-t2","name":"City center link (refine in data)","mode":"rail","lat":55.6701,"lng":12.5763}],"touristAnchors":[{"id":"copenhagen-core","label":"Copenhagen center","lat":55.6761,"lng":12.5683}]},{"id":"aarhus","label":"Aarhus, Denmark","countryCode":"DK","lat":56.1629,"lng":10.2039,"zoom":12,"boundsPad":0.085,"transit":[{"id":"aarhus-t1","name":"Transit / station area (refine in data)","mode":"rail","lat":56.1709,"lng":10.1979},{"id":"aarhus-t2","name":"City center link (refine in data)","mode":"rail","lat":56.1569,"lng":10.2119}],"touristAnchors":[{"id":"aarhus-core","label":"Aarhus center","lat":56.1629,"lng":10.2039}]},{"id":"odense","label":"Odense, Denmark","countryCode":"DK","lat":55.4038,"lng":10.4024,"zoom":12,"boundsPad":0.085,"transit":[{"id":"odense-t1","name":"Transit / station area (refine in data)","mode":"rail","lat":55.4118,"lng":10.3964},{"id":"odense-t2","name":"City center link (refine in data)","mode":"rail","lat":55.3978,"lng":10.4104}],"touristAnchors":[{"id":"odense-core","label":"Odense center","lat":55.4038,"lng":10.4024}]},{"id":"aalborg","label":"Aalborg, Denmark","countryCode":"DK","lat":57.0488,"lng":9.9217,"zoom":12,"boundsPad":0.085,"transit":[{"id":"aalborg-t1","name":"Transit / station area (refine in data)","mode":"rail","lat":57.0568,"lng":9.9157},{"id":"aalborg-t2","name":"City center link (refine in data)","mode":"rail","lat":57.0428,"lng":9.929699999999999}],"touristAnchors":[{"id":"aalborg-core","label":"Aalborg center","lat":57.0488,"lng":9.9217}]},{"id":"skagen","label":"Skagen, Denmark","countryCode":"DK","lat":57.7209,"lng":10.5839,"zoom":12,"boundsPad":0.085,"transit":[{"id":"skagen-t1","name":"Transit / station area (refine in data)","mode":"rail","lat":57.7289,"lng":10.5779},{"id":"skagen-t2","name":"City center link (refine in data)","mode":"rail","lat":57.7149,"lng":10.591899999999999}],"touristAnchors":[{"id":"skagen-core","label":"Skagen center","lat":57.7209,"lng":10.5839}]},{"id":"helsinki","label":"Helsinki, Finland","countryCode":"FI","lat":60.1699,"lng":24.9384,"zoom":11,"boundsPad":0.085,"transit":[{"id":"helsinki-t1","name":"Transit / station area (refine in data)","mode":"rail","lat":60.1779,"lng":24.9324},{"id":"helsinki-t2","name":"City center link (refine in data)","mode":"rail","lat":60.1639,"lng":24.9464}],"touristAnchors":[{"id":"helsinki-core","label":"Helsinki center","lat":60.1699,"lng":24.9384}]},{"id":"tampere","label":"Tampere, Finland","countryCode":"FI","lat":61.4978,"lng":23.76,"zoom":12,"boundsPad":0.085,"transit":[{"id":"tampere-t1","name":"Transit / station area (refine in data)","mode":"rail","lat":61.5058,"lng":23.754},{"id":"tampere-t2","name":"City center link (refine in data)","mode":"rail","lat":61.4918,"lng":23.768}],"touristAnchors":[{"id":"tampere-core","label":"Tampere center","lat":61.4978,"lng":23.76}]},{"id":"turku","label":"Turku, Finland","countryCode":"FI","lat":60.4518,"lng":22.2666,"zoom":12,"boundsPad":0.085,"transit":[{"id":"turku-t1","name":"Transit / station area (refine in data)","mode":"rail","lat":60.4598,"lng":22.2606},{"id":"turku-t2","name":"City center link (refine in data)","mode":"rail","lat":60.4458,"lng":22.2746}],"touristAnchors":[{"id":"turku-core","label":"Turku center","lat":60.4518,"lng":22.2666}]},{"id":"rovaniemi","label":"Rovaniemi, Finland","countryCode":"FI","lat":66.5039,"lng":25.7294,"zoom":11,"boundsPad":0.085,"transit":[{"id":"rovaniemi-t1","name":"Transit / station area (refine in data)","mode":"rail","lat":66.5119,"lng":25.723399999999998},{"id":"rovaniemi-t2","name":"City center link (refine in data)","mode":"rail","lat":66.4979,"lng":25.737399999999997}],"touristAnchors":[{"id":"rovaniemi-core","label":"Rovaniemi center","lat":66.5039,"lng":25.7294}]},{"id":"oulu","label":"Oulu, Finland","countryCode":"FI","lat":65.0121,"lng":25.4651,"zoom":11,"boundsPad":0.085,"transit":[{"id":"oulu-t1","name":"Transit / station area (refine in data)","mode":"rail","lat":65.0201,"lng":25.4591},{"id":"oulu-t2","name":"City center link (refine in data)","mode":"rail","lat":65.0061,"lng":25.4731}],"touristAnchors":[{"id":"oulu-core","label":"Oulu center","lat":65.0121,"lng":25.4651}]},{"id":"oslo","label":"Oslo, Norway","countryCode":"NO","lat":59.9139,"lng":10.7522,"zoom":11,"boundsPad":0.085,"transit":[{"id":"oslo-t1","name":"Transit / station area (refine in data)","mode":"rail","lat":59.9219,"lng":10.7462},{"id":"oslo-t2","name":"City center link (refine in data)","mode":"rail","lat":59.9079,"lng":10.7602}],"touristAnchors":[{"id":"oslo-core","label":"Oslo center","lat":59.9139,"lng":10.7522}]},{"id":"bergen","label":"Bergen, Norway","countryCode":"NO","lat":60.3913,"lng":5.3221,"zoom":12,"boundsPad":0.085,"transit":[{"id":"bergen-t1","name":"Transit / station area (refine in data)","mode":"rail","lat":60.399300000000004,"lng":5.3161},{"id":"bergen-t2","name":"City center link (refine in data)","mode":"rail","lat":60.3853,"lng":5.3301}],"touristAnchors":[{"id":"bergen-core","label":"Bergen center","lat":60.3913,"lng":5.3221}]},{"id":"stavanger","label":"Stavanger, Norway","countryCode":"NO","lat":58.97,"lng":5.7331,"zoom":12,"boundsPad":0.085,"transit":[{"id":"stavanger-t1","name":"Transit / station area (refine in data)","mode":"rail","lat":58.978,"lng":5.7271},{"id":"stavanger-t2","name":"City center link (refine in data)","mode":"rail","lat":58.964,"lng":5.7411}],"touristAnchors":[{"id":"stavanger-core","label":"Stavanger center","lat":58.97,"lng":5.7331}]},{"id":"tromso","label":"Tromso, Norway","countryCode":"NO","lat":69.6492,"lng":18.9553,"zoom":11,"boundsPad":0.085,"transit":[{"id":"tromso-t1","name":"Transit / station area (refine in data)","mode":"rail","lat":69.65719999999999,"lng":18.9493},{"id":"tromso-t2","name":"City center link (refine in data)","mode":"rail","lat":69.6432,"lng":18.9633}],"touristAnchors":[{"id":"tromso-core","label":"Tromso center","lat":69.6492,"lng":18.9553}]},{"id":"trondheim","label":"Trondheim, Norway","countryCode":"NO","lat":63.4305,"lng":10.3951,"zoom":12,"boundsPad":0.085,"transit":[{"id":"trondheim-t1","name":"Transit / station area (refine in data)","mode":"rail","lat":63.438500000000005,"lng":10.3891},{"id":"trondheim-t2","name":"City center link (refine in data)","mode":"rail","lat":63.4245,"lng":10.403099999999998}],"touristAnchors":[{"id":"trondheim-core","label":"Trondheim center","lat":63.4305,"lng":10.3951}]},{"id":"alesund","label":"Alesund, Norway","countryCode":"NO","lat":62.4722,"lng":6.1495,"zoom":12,"boundsPad":0.085,"transit":[{"id":"alesund-t1","name":"Transit / station area (refine in data)","mode":"rail","lat":62.4802,"lng":6.1434999999999995},{"id":"alesund-t2","name":"City center link (refine in data)","mode":"rail","lat":62.4662,"lng":6.1575}],"touristAnchors":[{"id":"alesund-core","label":"Alesund center","lat":62.4722,"lng":6.1495}]},{"id":"warsaw","label":"Warsaw, Poland","countryCode":"PL","lat":52.2297,"lng":21.0122,"zoom":11,"boundsPad":0.085,"transit":[{"id":"warsaw-t1","name":"Transit / station area (refine in data)","mode":"rail","lat":52.237700000000004,"lng":21.0062},{"id":"warsaw-t2","name":"City center link (refine in data)","mode":"rail","lat":52.2237,"lng":21.0202}],"touristAnchors":[{"id":"warsaw-core","label":"Warsaw center","lat":52.2297,"lng":21.0122}]},{"id":"krakow","label":"Krakow, Poland","countryCode":"PL","lat":50.0647,"lng":19.945,"zoom":12,"boundsPad":0.085,"transit":[{"id":"krakow-t1","name":"Transit / station area (refine in data)","mode":"rail","lat":50.072700000000005,"lng":19.939},{"id":"krakow-t2","name":"City center link (refine in data)","mode":"rail","lat":50.0587,"lng":19.953}],"touristAnchors":[{"id":"krakow-core","label":"Krakow center","lat":50.0647,"lng":19.945}]},{"id":"gdansk","label":"Gdansk, Poland","countryCode":"PL","lat":54.352,"lng":18.6466,"zoom":12,"boundsPad":0.085,"transit":[{"id":"gdansk-t1","name":"Transit / station area (refine in data)","mode":"rail","lat":54.36,"lng":18.6406},{"id":"gdansk-t2","name":"City center link (refine in data)","mode":"rail","lat":54.346,"lng":18.6546}],"touristAnchors":[{"id":"gdansk-core","label":"Gdansk center","lat":54.352,"lng":18.6466}]},{"id":"wroclaw","label":"Wroclaw, Poland","countryCode":"PL","lat":51.1079,"lng":17.0385,"zoom":12,"boundsPad":0.085,"transit":[{"id":"wroclaw-t1","name":"Transit / station area (refine in data)","mode":"rail","lat":51.1159,"lng":17.0325},{"id":"wroclaw-t2","name":"City center link (refine in data)","mode":"rail","lat":51.1019,"lng":17.046499999999998}],"touristAnchors":[{"id":"wroclaw-core","label":"Wroclaw center","lat":51.1079,"lng":17.0385}]},{"id":"poznan","label":"Poznan, Poland","countryCode":"PL","lat":52.4064,"lng":16.9252,"zoom":12,"boundsPad":0.085,"transit":[{"id":"poznan-t1","name":"Transit / station area (refine in data)","mode":"rail","lat":52.4144,"lng":16.9192},{"id":"poznan-t2","name":"City center link (refine in data)","mode":"rail","lat":52.4004,"lng":16.9332}],"touristAnchors":[{"id":"poznan-core","label":"Poznan center","lat":52.4064,"lng":16.9252}]},{"id":"zakopane","label":"Zakopane, Poland","countryCode":"PL","lat":49.2992,"lng":19.9496,"zoom":12,"boundsPad":0.085,"transit":[{"id":"zakopane-t1","name":"Transit / station area (refine in data)","mode":"rail","lat":49.3072,"lng":19.9436},{"id":"zakopane-t2","name":"City center link (refine in data)","mode":"rail","lat":49.2932,"lng":19.9576}],"touristAnchors":[{"id":"zakopane-core","label":"Zakopane center","lat":49.2992,"lng":19.9496}]},{"id":"torun","label":"Torun, Poland","countryCode":"PL","lat":53.0138,"lng":18.5981,"zoom":12,"boundsPad":0.085,"transit":[{"id":"torun-t1","name":"Transit / station area (refine in data)","mode":"rail","lat":53.021800000000006,"lng":18.5921},{"id":"torun-t2","name":"City center link (refine in data)","mode":"rail","lat":53.0078,"lng":18.606099999999998}],"touristAnchors":[{"id":"torun-core","label":"Torun center","lat":53.0138,"lng":18.5981}]},{"id":"gdynia","label":"Gdynia, Poland","countryCode":"PL","lat":54.5189,"lng":18.5305,"zoom":12,"boundsPad":0.085,"transit":[{"id":"gdynia-t1","name":"Transit / station area (refine in data)","mode":"rail","lat":54.526900000000005,"lng":18.5245},{"id":"gdynia-t2","name":"City center link (refine in data)","mode":"rail","lat":54.5129,"lng":18.5385}],"touristAnchors":[{"id":"gdynia-core","label":"Gdynia center","lat":54.5189,"lng":18.5305}]},{"id":"sopot","label":"Sopot, Poland","countryCode":"PL","lat":54.4418,"lng":18.5601,"zoom":12,"boundsPad":0.085,"transit":[{"id":"sopot-t1","name":"Transit / station area (refine in data)","mode":"rail","lat":54.4498,"lng":18.5541},{"id":"sopot-t2","name":"City center link (refine in data)","mode":"rail","lat":54.4358,"lng":18.568099999999998}],"touristAnchors":[{"id":"sopot-core","label":"Sopot center","lat":54.4418,"lng":18.5601}]},{"id":"prague","label":"Prague, Czechia","countryCode":"CZ","lat":50.0755,"lng":14.4378,"zoom":11,"boundsPad":0.085,"transit":[{"id":"prague-t1","name":"Transit / station area (refine in data)","mode":"rail","lat":50.0835,"lng":14.431799999999999},{"id":"prague-t2","name":"City center link (refine in data)","mode":"rail","lat":50.0695,"lng":14.445799999999998}],"touristAnchors":[{"id":"prague-core","label":"Prague center","lat":50.0755,"lng":14.4378}]},{"id":"brno","label":"Brno, Czechia","countryCode":"CZ","lat":49.1951,"lng":16.6068,"zoom":12,"boundsPad":0.085,"transit":[{"id":"brno-t1","name":"Transit / station area (refine in data)","mode":"rail","lat":49.2031,"lng":16.6008},{"id":"brno-t2","name":"City center link (refine in data)","mode":"rail","lat":49.189099999999996,"lng":16.6148}],"touristAnchors":[{"id":"brno-core","label":"Brno center","lat":49.1951,"lng":16.6068}]},{"id":"cesky-krumlov","label":"Cesky Krumlov, Czechia","countryCode":"CZ","lat":48.8109,"lng":14.3152,"zoom":13,"boundsPad":0.045,"transit":[{"id":"cesky-krumlov-t1","name":"Transit / station area (refine in data)","mode":"rail","lat":48.8189,"lng":14.3092},{"id":"cesky-krumlov-t2","name":"City center link (refine in data)","mode":"rail","lat":48.804899999999996,"lng":14.3232}],"touristAnchors":[{"id":"cesky-krumlov-core","label":"Cesky Krumlov center","lat":48.8109,"lng":14.3152}]},{"id":"karlovy-vary","label":"Karlovy Vary, Czechia","countryCode":"CZ","lat":50.2329,"lng":12.8711,"zoom":12,"boundsPad":0.085,"transit":[{"id":"karlovy-vary-t1","name":"Transit / station area (refine in data)","mode":"rail","lat":50.2409,"lng":12.8651},{"id":"karlovy-vary-t2","name":"City center link (refine in data)","mode":"rail","lat":50.2269,"lng":12.8791}],"touristAnchors":[{"id":"karlovy-vary-core","label":"Karlovy Vary center","lat":50.2329,"lng":12.8711}]},{"id":"olomouc","label":"Olomouc, Czechia","countryCode":"CZ","lat":49.5938,"lng":17.2509,"zoom":12,"boundsPad":0.085,"transit":[{"id":"olomouc-t1","name":"Transit / station area (refine in data)","mode":"rail","lat":49.601800000000004,"lng":17.2449},{"id":"olomouc-t2","name":"City center link (refine in data)","mode":"rail","lat":49.5878,"lng":17.2589}],"touristAnchors":[{"id":"olomouc-core","label":"Olomouc center","lat":49.5938,"lng":17.2509}]},{"id":"budapest","label":"Budapest, Hungary","countryCode":"HU","lat":47.4979,"lng":19.0402,"zoom":11,"boundsPad":0.085,"transit":[{"id":"budapest-t1","name":"Transit / station area (refine in data)","mode":"rail","lat":47.505900000000004,"lng":19.0342},{"id":"budapest-t2","name":"City center link (refine in data)","mode":"rail","lat":47.4919,"lng":19.048199999999998}],"touristAnchors":[{"id":"budapest-core","label":"Budapest center","lat":47.4979,"lng":19.0402}]},{"id":"eger","label":"Eger, Hungary","countryCode":"HU","lat":47.9029,"lng":20.3733,"zoom":12,"boundsPad":0.085,"transit":[{"id":"eger-t1","name":"Transit / station area (refine in data)","mode":"rail","lat":47.910900000000005,"lng":20.3673},{"id":"eger-t2","name":"City center link (refine in data)","mode":"rail","lat":47.8969,"lng":20.3813}],"touristAnchors":[{"id":"eger-core","label":"Eger center","lat":47.9029,"lng":20.3733}]},{"id":"siofok","label":"Siofok, Hungary","countryCode":"HU","lat":46.9041,"lng":18.058,"zoom":12,"boundsPad":0.085,"transit":[{"id":"siofok-t1","name":"Transit / station area (refine in data)","mode":"rail","lat":46.9121,"lng":18.052},{"id":"siofok-t2","name":"City center link (refine in data)","mode":"rail","lat":46.8981,"lng":18.066}],"touristAnchors":[{"id":"siofok-core","label":"Siofok center","lat":46.9041,"lng":18.058}]},{"id":"heviz","label":"Heviz, Hungary","countryCode":"HU","lat":46.7903,"lng":17.1841,"zoom":12,"boundsPad":0.085,"transit":[{"id":"heviz-t1","name":"Transit / station area (refine in data)","mode":"rail","lat":46.798300000000005,"lng":17.1781},{"id":"heviz-t2","name":"City center link (refine in data)","mode":"rail","lat":46.7843,"lng":17.1921}],"touristAnchors":[{"id":"heviz-core","label":"Heviz center","lat":46.7903,"lng":17.1841}]},{"id":"pecs","label":"Pecs, Hungary","countryCode":"HU","lat":46.0727,"lng":18.2323,"zoom":12,"boundsPad":0.085,"transit":[{"id":"pecs-t1","name":"Transit / station area (refine in data)","mode":"rail","lat":46.0807,"lng":18.2263},{"id":"pecs-t2","name":"City center link (refine in data)","mode":"rail","lat":46.0667,"lng":18.240299999999998}],"touristAnchors":[{"id":"pecs-core","label":"Pecs center","lat":46.0727,"lng":18.2323}]},{"id":"athens","label":"Athens, Greece","countryCode":"GR","lat":37.9838,"lng":23.7275,"zoom":11,"boundsPad":0.085,"transit":[{"id":"athens-t1","name":"Transit / station area (refine in data)","mode":"rail","lat":37.991800000000005,"lng":23.7215},{"id":"athens-t2","name":"City center link (refine in data)","mode":"rail","lat":37.9778,"lng":23.7355}],"touristAnchors":[{"id":"athens-core","label":"Athens center","lat":37.9838,"lng":23.7275}]},{"id":"thessaloniki","label":"Thessaloniki, Greece","countryCode":"GR","lat":40.6401,"lng":22.9444,"zoom":11,"boundsPad":0.085,"transit":[{"id":"thessaloniki-t1","name":"Transit / station area (refine in data)","mode":"rail","lat":40.6481,"lng":22.9384},{"id":"thessaloniki-t2","name":"City center link (refine in data)","mode":"rail","lat":40.6341,"lng":22.9524}],"touristAnchors":[{"id":"thessaloniki-core","label":"Thessaloniki center","lat":40.6401,"lng":22.9444}]},{"id":"santorini-fira","label":"Fira, Greece","countryCode":"GR","lat":36.4169,"lng":25.4321,"zoom":12,"boundsPad":0.085,"transit":[{"id":"santorini-fira-t1","name":"Transit / station area (refine in data)","mode":"rail","lat":36.4249,"lng":25.426099999999998},{"id":"santorini-fira-t2","name":"City center link (refine in data)","mode":"rail","lat":36.4109,"lng":25.440099999999997}],"touristAnchors":[{"id":"santorini-fira-core","label":"Fira center","lat":36.4169,"lng":25.4321}]},{"id":"mykonos-town","label":"Mykonos, Greece","countryCode":"GR","lat":37.4467,"lng":25.3289,"zoom":12,"boundsPad":0.085,"transit":[{"id":"mykonos-town-t1","name":"Transit / station area (refine in data)","mode":"rail","lat":37.4547,"lng":25.3229},{"id":"mykonos-town-t2","name":"City center link (refine in data)","mode":"rail","lat":37.4407,"lng":25.3369}],"touristAnchors":[{"id":"mykonos-town-core","label":"Mykonos center","lat":37.4467,"lng":25.3289}]},{"id":"heraklion","label":"Heraklion, Greece","countryCode":"GR","lat":35.3387,"lng":25.1442,"zoom":12,"boundsPad":0.085,"transit":[{"id":"heraklion-t1","name":"Transit / station area (refine in data)","mode":"rail","lat":35.346700000000006,"lng":25.1382},{"id":"heraklion-t2","name":"City center link (refine in data)","mode":"rail","lat":35.3327,"lng":25.1522}],"touristAnchors":[{"id":"heraklion-core","label":"Heraklion center","lat":35.3387,"lng":25.1442}]},{"id":"rhodes-town","label":"Rhodes, Greece","countryCode":"GR","lat":36.4341,"lng":28.2176,"zoom":12,"boundsPad":0.085,"transit":[{"id":"rhodes-town-t1","name":"Transit / station area (refine in data)","mode":"rail","lat":36.4421,"lng":28.2116},{"id":"rhodes-town-t2","name":"City center link (refine in data)","mode":"rail","lat":36.4281,"lng":28.2256}],"touristAnchors":[{"id":"rhodes-town-core","label":"Rhodes center","lat":36.4341,"lng":28.2176}]},{"id":"corfu-town","label":"Corfu, Greece","countryCode":"GR","lat":39.6243,"lng":19.9217,"zoom":12,"boundsPad":0.085,"transit":[{"id":"corfu-town-t1","name":"Transit / station area (refine in data)","mode":"rail","lat":39.6323,"lng":19.9157},{"id":"corfu-town-t2","name":"City center link (refine in data)","mode":"rail","lat":39.6183,"lng":19.9297}],"touristAnchors":[{"id":"corfu-town-core","label":"Corfu center","lat":39.6243,"lng":19.9217}]},{"id":"nafplio","label":"Nafplio, Greece","countryCode":"GR","lat":37.5683,"lng":22.8075,"zoom":12,"boundsPad":0.085,"transit":[{"id":"nafplio-t1","name":"Transit / station area (refine in data)","mode":"rail","lat":37.5763,"lng":22.8015},{"id":"nafplio-t2","name":"City center link (refine in data)","mode":"rail","lat":37.5623,"lng":22.8155}],"touristAnchors":[{"id":"nafplio-core","label":"Nafplio center","lat":37.5683,"lng":22.8075}]},{"id":"meteora-kalambaka","label":"Kalambaka, Greece","countryCode":"GR","lat":39.7044,"lng":21.6269,"zoom":12,"boundsPad":0.085,"transit":[{"id":"meteora-kalambaka-t1","name":"Transit / station area (refine in data)","mode":"rail","lat":39.7124,"lng":21.6209},{"id":"meteora-kalambaka-t2","name":"City center link (refine in data)","mode":"rail","lat":39.6984,"lng":21.6349}],"touristAnchors":[{"id":"meteora-kalambaka-core","label":"Kalambaka center","lat":39.7044,"lng":21.6269}]},{"id":"chania","label":"Chania, Greece","countryCode":"GR","lat":35.5132,"lng":24.018,"zoom":12,"boundsPad":0.085,"transit":[{"id":"chania-t1","name":"Transit / station area (refine in data)","mode":"rail","lat":35.5212,"lng":24.012},{"id":"chania-t2","name":"City center link (refine in data)","mode":"rail","lat":35.5072,"lng":24.026}],"touristAnchors":[{"id":"chania-core","label":"Chania center","lat":35.5132,"lng":24.018}]},{"id":"zakynthos","label":"Zakynthos, Greece","countryCode":"GR","lat":37.7829,"lng":20.8978,"zoom":12,"boundsPad":0.085,"transit":[{"id":"zakynthos-t1","name":"Transit / station area (refine in data)","mode":"rail","lat":37.7909,"lng":20.8918},{"id":"zakynthos-t2","name":"City center link (refine in data)","mode":"rail","lat":37.7769,"lng":20.9058}],"touristAnchors":[{"id":"zakynthos-core","label":"Zakynthos center","lat":37.7829,"lng":20.8978}]},{"id":"paris","label":"Paris, France","countryCode":"FR","lat":48.8566,"lng":2.3522,"zoom":11,"boundsPad":0.085,"transit":[{"id":"paris-t1","name":"Transit / station area (refine in data)","mode":"rail","lat":48.8646,"lng":2.3462},{"id":"paris-t2","name":"City center link (refine in data)","mode":"rail","lat":48.8506,"lng":2.3602}],"touristAnchors":[{"id":"paris-core","label":"Paris center","lat":48.8566,"lng":2.3522}]},{"id":"lyon","label":"Lyon, France","countryCode":"FR","lat":45.764,"lng":4.8357,"zoom":11,"boundsPad":0.085,"transit":[{"id":"lyon-t1","name":"Transit / station area (refine in data)","mode":"rail","lat":45.772000000000006,"lng":4.8297},{"id":"lyon-t2","name":"City center link (refine in data)","mode":"rail","lat":45.758,"lng":4.8437}],"touristAnchors":[{"id":"lyon-core","label":"Lyon center","lat":45.764,"lng":4.8357}]},{"id":"nice","label":"Nice, France","countryCode":"FR","lat":43.7102,"lng":7.262,"zoom":12,"boundsPad":0.085,"transit":[{"id":"nice-t1","name":"Transit / station area (refine in data)","mode":"rail","lat":43.7182,"lng":7.255999999999999},{"id":"nice-t2","name":"City center link (refine in data)","mode":"rail","lat":43.7042,"lng":7.27}],"touristAnchors":[{"id":"nice-core","label":"Nice center","lat":43.7102,"lng":7.262}]},{"id":"marseille","label":"Marseille, France","countryCode":"FR","lat":43.2965,"lng":5.3698,"zoom":11,"boundsPad":0.085,"transit":[{"id":"marseille-t1","name":"Transit / station area (refine in data)","mode":"rail","lat":43.304500000000004,"lng":5.3637999999999995},{"id":"marseille-t2","name":"City center link (refine in data)","mode":"rail","lat":43.2905,"lng":5.3778}],"touristAnchors":[{"id":"marseille-core","label":"Marseille center","lat":43.2965,"lng":5.3698}]},{"id":"bordeaux","label":"Bordeaux, France","countryCode":"FR","lat":44.8378,"lng":-0.5792,"zoom":11,"boundsPad":0.085,"transit":[{"id":"bordeaux-t1","name":"Transit / station area (refine in data)","mode":"rail","lat":44.845800000000004,"lng":-0.5852},{"id":"bordeaux-t2","name":"City center link (refine in data)","mode":"rail","lat":44.8318,"lng":-0.5712}],"touristAnchors":[{"id":"bordeaux-core","label":"Bordeaux center","lat":44.8378,"lng":-0.5792}]},{"id":"toulouse","label":"Toulouse, France","countryCode":"FR","lat":43.6047,"lng":1.4442,"zoom":11,"boundsPad":0.085,"transit":[{"id":"toulouse-t1","name":"Transit / station area (refine in data)","mode":"rail","lat":43.612700000000004,"lng":1.4382},{"id":"toulouse-t2","name":"City center link (refine in data)","mode":"rail","lat":43.5987,"lng":1.4522}],"touristAnchors":[{"id":"toulouse-core","label":"Toulouse center","lat":43.6047,"lng":1.4442}]},{"id":"strasbourg","label":"Strasbourg, France","countryCode":"FR","lat":48.5734,"lng":7.7521,"zoom":12,"boundsPad":0.085,"transit":[{"id":"strasbourg-t1","name":"Transit / station area (refine in data)","mode":"rail","lat":48.5814,"lng":7.7461},{"id":"strasbourg-t2","name":"City center link (refine in data)","mode":"rail","lat":48.5674,"lng":7.7601}],"touristAnchors":[{"id":"strasbourg-core","label":"Strasbourg center","lat":48.5734,"lng":7.7521}]},{"id":"annecy","label":"Annecy, France","countryCode":"FR","lat":45.8992,"lng":6.1294,"zoom":12,"boundsPad":0.085,"transit":[{"id":"annecy-t1","name":"Transit / station area (refine in data)","mode":"rail","lat":45.9072,"lng":6.1234},{"id":"annecy-t2","name":"City center link (refine in data)","mode":"rail","lat":45.8932,"lng":6.1374}],"touristAnchors":[{"id":"annecy-core","label":"Annecy center","lat":45.8992,"lng":6.1294}]},{"id":"cannes","label":"Cannes, France","countryCode":"FR","lat":43.5528,"lng":7.0174,"zoom":12,"boundsPad":0.085,"transit":[{"id":"cannes-t1","name":"Transit / station area (refine in data)","mode":"rail","lat":43.5608,"lng":7.0114},{"id":"cannes-t2","name":"City center link (refine in data)","mode":"rail","lat":43.5468,"lng":7.0254}],"touristAnchors":[{"id":"cannes-core","label":"Cannes center","lat":43.5528,"lng":7.0174}]},{"id":"avignon","label":"Avignon, France","countryCode":"FR","lat":43.9493,"lng":4.8055,"zoom":12,"boundsPad":0.085,"transit":[{"id":"avignon-t1","name":"Transit / station area (refine in data)","mode":"rail","lat":43.957300000000004,"lng":4.7995},{"id":"avignon-t2","name":"City center link (refine in data)","mode":"rail","lat":43.9433,"lng":4.8135}],"touristAnchors":[{"id":"avignon-core","label":"Avignon center","lat":43.9493,"lng":4.8055}]},{"id":"colmar","label":"Colmar, France","countryCode":"FR","lat":48.0794,"lng":7.3586,"zoom":13,"boundsPad":0.045,"transit":[{"id":"colmar-t1","name":"Transit / station area (refine in data)","mode":"rail","lat":48.0874,"lng":7.3526},{"id":"colmar-t2","name":"City center link (refine in data)","mode":"rail","lat":48.0734,"lng":7.3666}],"touristAnchors":[{"id":"colmar-core","label":"Colmar center","lat":48.0794,"lng":7.3586}]},{"id":"lille","label":"Lille, France","countryCode":"FR","lat":50.6292,"lng":3.0573,"zoom":11,"boundsPad":0.085,"transit":[{"id":"lille-t1","name":"Transit / station area (refine in data)","mode":"rail","lat":50.6372,"lng":3.0513000000000003},{"id":"lille-t2","name":"City center link (refine in data)","mode":"rail","lat":50.6232,"lng":3.0653}],"touristAnchors":[{"id":"lille-core","label":"Lille center","lat":50.6292,"lng":3.0573}]},{"id":"nantes","label":"Nantes, France","countryCode":"FR","lat":47.2184,"lng":-1.5536,"zoom":11,"boundsPad":0.085,"transit":[{"id":"nantes-t1","name":"Transit / station area (refine in data)","mode":"rail","lat":47.226400000000005,"lng":-1.5596},{"id":"nantes-t2","name":"City center link (refine in data)","mode":"rail","lat":47.2124,"lng":-1.5456}],"touristAnchors":[{"id":"nantes-core","label":"Nantes center","lat":47.2184,"lng":-1.5536}]},{"id":"rennes","label":"Rennes, France","countryCode":"FR","lat":48.1173,"lng":-1.6778,"zoom":11,"boundsPad":0.085,"transit":[{"id":"rennes-t1","name":"Transit / station area (refine in data)","mode":"rail","lat":48.1253,"lng":-1.6838},{"id":"rennes-t2","name":"City center link (refine in data)","mode":"rail","lat":48.1113,"lng":-1.6698}],"touristAnchors":[{"id":"rennes-core","label":"Rennes center","lat":48.1173,"lng":-1.6778}]},{"id":"montpellier","label":"Montpellier, France","countryCode":"FR","lat":43.6108,"lng":3.8767,"zoom":11,"boundsPad":0.085,"transit":[{"id":"montpellier-t1","name":"Transit / station area (refine in data)","mode":"rail","lat":43.6188,"lng":3.8707000000000003},{"id":"montpellier-t2","name":"City center link (refine in data)","mode":"rail","lat":43.6048,"lng":3.8847}],"touristAnchors":[{"id":"montpellier-core","label":"Montpellier center","lat":43.6108,"lng":3.8767}]},{"id":"reims","label":"Reims, France","countryCode":"FR","lat":49.2583,"lng":4.0317,"zoom":12,"boundsPad":0.085,"transit":[{"id":"reims-t1","name":"Transit / station area (refine in data)","mode":"rail","lat":49.2663,"lng":4.0257},{"id":"reims-t2","name":"City center link (refine in data)","mode":"rail","lat":49.2523,"lng":4.0397}],"touristAnchors":[{"id":"reims-core","label":"Reims center","lat":49.2583,"lng":4.0317}]},{"id":"dijon","label":"Dijon, France","countryCode":"FR","lat":47.322,"lng":5.0415,"zoom":12,"boundsPad":0.085,"transit":[{"id":"dijon-t1","name":"Transit / station area (refine in data)","mode":"rail","lat":47.330000000000005,"lng":5.0355},{"id":"dijon-t2","name":"City center link (refine in data)","mode":"rail","lat":47.316,"lng":5.0495}],"touristAnchors":[{"id":"dijon-core","label":"Dijon center","lat":47.322,"lng":5.0415}]},{"id":"rouen","label":"Rouen, France","countryCode":"FR","lat":49.4431,"lng":1.0993,"zoom":12,"boundsPad":0.085,"transit":[{"id":"rouen-t1","name":"Transit / station area (refine in data)","mode":"rail","lat":49.451100000000004,"lng":1.0933},{"id":"rouen-t2","name":"City center link (refine in data)","mode":"rail","lat":49.4371,"lng":1.1073}],"touristAnchors":[{"id":"rouen-core","label":"Rouen center","lat":49.4431,"lng":1.0993}]},{"id":"biarritz","label":"Biarritz, France","countryCode":"FR","lat":43.4832,"lng":-1.5586,"zoom":12,"boundsPad":0.085,"transit":[{"id":"biarritz-t1","name":"Transit / station area (refine in data)","mode":"rail","lat":43.4912,"lng":-1.5646},{"id":"biarritz-t2","name":"City center link (refine in data)","mode":"rail","lat":43.477199999999996,"lng":-1.5506}],"touristAnchors":[{"id":"biarritz-core","label":"Biarritz center","lat":43.4832,"lng":-1.5586}]},{"id":"carcassonne","label":"Carcassonne, France","countryCode":"FR","lat":43.2122,"lng":2.3537,"zoom":13,"boundsPad":0.045,"transit":[{"id":"carcassonne-t1","name":"Transit / station area (refine in data)","mode":"rail","lat":43.220200000000006,"lng":2.3477},{"id":"carcassonne-t2","name":"City center link (refine in data)","mode":"rail","lat":43.2062,"lng":2.3617}],"touristAnchors":[{"id":"carcassonne-core","label":"Carcassonne center","lat":43.2122,"lng":2.3537}]},{"id":"st-malo","label":"Saint-Malo, France","countryCode":"FR","lat":48.6493,"lng":-2.0257,"zoom":12,"boundsPad":0.085,"transit":[{"id":"st-malo-t1","name":"Transit / station area (refine in data)","mode":"rail","lat":48.6573,"lng":-2.0317},{"id":"st-malo-t2","name":"City center link (refine in data)","mode":"rail","lat":48.643299999999996,"lng":-2.0177}],"touristAnchors":[{"id":"st-malo-core","label":"Saint-Malo center","lat":48.6493,"lng":-2.0257}]},{"id":"honfleur","label":"Honfleur, France","countryCode":"FR","lat":49.419,"lng":0.2329,"zoom":13,"boundsPad":0.045,"transit":[{"id":"honfleur-t1","name":"Transit / station area (refine in data)","mode":"rail","lat":49.427,"lng":0.2269},{"id":"honfleur-t2","name":"City center link (refine in data)","mode":"rail","lat":49.413,"lng":0.2409}],"touristAnchors":[{"id":"honfleur-core","label":"Honfleur center","lat":49.419,"lng":0.2329}]},{"id":"brussels","label":"Brussels, Belgium","countryCode":"BE","lat":50.8503,"lng":4.3517,"zoom":11,"boundsPad":0.085,"transit":[{"id":"brussels-t1","name":"Transit / station area (refine in data)","mode":"rail","lat":50.8583,"lng":4.3457},{"id":"brussels-t2","name":"City center link (refine in data)","mode":"rail","lat":50.8443,"lng":4.3597}],"touristAnchors":[{"id":"brussels-core","label":"Brussels center","lat":50.8503,"lng":4.3517}]},{"id":"antwerp","label":"Antwerp, Belgium","countryCode":"BE","lat":51.2194,"lng":4.4025,"zoom":12,"boundsPad":0.085,"transit":[{"id":"antwerp-t1","name":"Transit / station area (refine in data)","mode":"rail","lat":51.2274,"lng":4.3965},{"id":"antwerp-t2","name":"City center link (refine in data)","mode":"rail","lat":51.2134,"lng":4.4105}],"touristAnchors":[{"id":"antwerp-core","label":"Antwerp center","lat":51.2194,"lng":4.4025}]},{"id":"bruges","label":"Bruges, Belgium","countryCode":"BE","lat":51.2093,"lng":3.2247,"zoom":12,"boundsPad":0.085,"transit":[{"id":"bruges-t1","name":"Transit / station area (refine in data)","mode":"rail","lat":51.2173,"lng":3.2187},{"id":"bruges-t2","name":"City center link (refine in data)","mode":"rail","lat":51.2033,"lng":3.2327}],"touristAnchors":[{"id":"bruges-core","label":"Bruges center","lat":51.2093,"lng":3.2247}]},{"id":"ghent","label":"Ghent, Belgium","countryCode":"BE","lat":51.0543,"lng":3.7174,"zoom":12,"boundsPad":0.085,"transit":[{"id":"ghent-t1","name":"Transit / station area (refine in data)","mode":"rail","lat":51.0623,"lng":3.7114000000000003},{"id":"ghent-t2","name":"City center link (refine in data)","mode":"rail","lat":51.0483,"lng":3.7254}],"touristAnchors":[{"id":"ghent-core","label":"Ghent center","lat":51.0543,"lng":3.7174}]},{"id":"leuven","label":"Leuven, Belgium","countryCode":"BE","lat":50.8798,"lng":4.7005,"zoom":12,"boundsPad":0.085,"transit":[{"id":"leuven-t1","name":"Transit / station area (refine in data)","mode":"rail","lat":50.887800000000006,"lng":4.6945},{"id":"leuven-t2","name":"City center link (refine in data)","mode":"rail","lat":50.8738,"lng":4.7085}],"touristAnchors":[{"id":"leuven-core","label":"Leuven center","lat":50.8798,"lng":4.7005}]},{"id":"dinant","label":"Dinant, Belgium","countryCode":"BE","lat":50.2605,"lng":4.9121,"zoom":13,"boundsPad":0.045,"transit":[{"id":"dinant-t1","name":"Transit / station area (refine in data)","mode":"rail","lat":50.2685,"lng":4.9060999999999995},{"id":"dinant-t2","name":"City center link (refine in data)","mode":"rail","lat":50.2545,"lng":4.9201}],"touristAnchors":[{"id":"dinant-core","label":"Dinant center","lat":50.2605,"lng":4.9121}]},{"id":"amsterdam","label":"Amsterdam, Netherlands","countryCode":"NL","lat":52.3676,"lng":4.9041,"zoom":11,"boundsPad":0.085,"transit":[{"id":"amsterdam-t1","name":"Transit / station area (refine in data)","mode":"rail","lat":52.375600000000006,"lng":4.8980999999999995},{"id":"amsterdam-t2","name":"City center link (refine in data)","mode":"rail","lat":52.3616,"lng":4.9121}],"touristAnchors":[{"id":"amsterdam-core","label":"Amsterdam center","lat":52.3676,"lng":4.9041}]},{"id":"rotterdam","label":"Rotterdam, Netherlands","countryCode":"NL","lat":51.9244,"lng":4.4777,"zoom":11,"boundsPad":0.085,"transit":[{"id":"rotterdam-t1","name":"Transit / station area (refine in data)","mode":"rail","lat":51.9324,"lng":4.471699999999999},{"id":"rotterdam-t2","name":"City center link (refine in data)","mode":"rail","lat":51.9184,"lng":4.4857}],"touristAnchors":[{"id":"rotterdam-core","label":"Rotterdam center","lat":51.9244,"lng":4.4777}]},{"id":"the-hague","label":"The Hague, Netherlands","countryCode":"NL","lat":52.0705,"lng":4.3007,"zoom":11,"boundsPad":0.085,"transit":[{"id":"the-hague-t1","name":"Transit / station area (refine in data)","mode":"rail","lat":52.078500000000005,"lng":4.2947},{"id":"the-hague-t2","name":"City center link (refine in data)","mode":"rail","lat":52.0645,"lng":4.3087}],"touristAnchors":[{"id":"the-hague-core","label":"The Hague center","lat":52.0705,"lng":4.3007}]},{"id":"utrecht","label":"Utrecht, Netherlands","countryCode":"NL","lat":52.0907,"lng":5.1214,"zoom":12,"boundsPad":0.085,"transit":[{"id":"utrecht-t1","name":"Transit / station area (refine in data)","mode":"rail","lat":52.0987,"lng":5.1154},{"id":"utrecht-t2","name":"City center link (refine in data)","mode":"rail","lat":52.0847,"lng":5.1294}],"touristAnchors":[{"id":"utrecht-core","label":"Utrecht center","lat":52.0907,"lng":5.1214}]},{"id":"maastricht","label":"Maastricht, Netherlands","countryCode":"NL","lat":50.8514,"lng":5.691,"zoom":12,"boundsPad":0.085,"transit":[{"id":"maastricht-t1","name":"Transit / station area (refine in data)","mode":"rail","lat":50.8594,"lng":5.685},{"id":"maastricht-t2","name":"City center link (refine in data)","mode":"rail","lat":50.8454,"lng":5.699}],"touristAnchors":[{"id":"maastricht-core","label":"Maastricht center","lat":50.8514,"lng":5.691}]},{"id":"eindhoven","label":"Eindhoven, Netherlands","countryCode":"NL","lat":51.4416,"lng":5.4697,"zoom":12,"boundsPad":0.085,"transit":[{"id":"eindhoven-t1","name":"Transit / station area (refine in data)","mode":"rail","lat":51.449600000000004,"lng":5.463699999999999},{"id":"eindhoven-t2","name":"City center link (refine in data)","mode":"rail","lat":51.4356,"lng":5.4777}],"touristAnchors":[{"id":"eindhoven-core","label":"Eindhoven center","lat":51.4416,"lng":5.4697}]},{"id":"haarlem","label":"Haarlem, Netherlands","countryCode":"NL","lat":52.3874,"lng":4.6462,"zoom":12,"boundsPad":0.085,"transit":[{"id":"haarlem-t1","name":"Transit / station area (refine in data)","mode":"rail","lat":52.3954,"lng":4.6402},{"id":"haarlem-t2","name":"City center link (refine in data)","mode":"rail","lat":52.3814,"lng":4.6542}],"touristAnchors":[{"id":"haarlem-core","label":"Haarlem center","lat":52.3874,"lng":4.6462}]},{"id":"giethoorn","label":"Giethoorn, Netherlands","countryCode":"NL","lat":52.74,"lng":6.0729,"zoom":13,"boundsPad":0.045,"transit":[{"id":"giethoorn-t1","name":"Transit / station area (refine in data)","mode":"rail","lat":52.748000000000005,"lng":6.0668999999999995},{"id":"giethoorn-t2","name":"City center link (refine in data)","mode":"rail","lat":52.734,"lng":6.0809}],"touristAnchors":[{"id":"giethoorn-core","label":"Giethoorn center","lat":52.74,"lng":6.0729}]},{"id":"edinburgh","label":"Edinburgh, United Kingdom","countryCode":"GB","lat":55.9533,"lng":-3.1883,"zoom":11,"boundsPad":0.085,"transit":[{"id":"edinburgh-t1","name":"Transit / station area (refine in data)","mode":"rail","lat":55.9613,"lng":-3.1942999999999997},